STABR,FSCSKEY,LIBID,LIBNAME,ADDRESS,CITY,ZIP,ZIP4,CNTY,PHONE,C_RELATN,C_LEGBAS,C_ADMIN,GEOCODE,LSABOUND,STARTDAT,ENDDATE,POPU_LSA,CENTLIB,BRANLIB,BKMOB,MASTER,LIBRARIA,TOTSTAFF,LOCGVT,STGVT,FEDGVT,TOTINCM,SALARIES,BENEFIT,STAFFEXP,PRMATEXP,ELMATEXP,TOTEXPCO,TOTOPEXP,LCAP_REV,SCAP_REV,FCAP_REV,CAP_REV,CAPITAL,BKVOL,EBOOK,AUDIO,VIDEO,DATABASE,SUBSCRIP,HRS_OPEN,VISITS,REFERENC,REGBOR,TOTCIR,KIDCIRCL,LOANTO,LOANFM,TOTPRO,TOTATTEN,GPTERMS,PITUSR,YR_SUB,OBEREG,RSTATUS,STATSTRU,STATNAME,STATADDR,LONGITUD,LATITUDE,FIPSST,FIPSCO
AK,AK0001,AK0001-002,ANCHOR POINT PUBLIC LIBRARY,72251 MILO FRITZ AVENUE,ANCHOR POINT,99556,0129,KENAI PENINSULA,9072355692,NO,NP,SO,CI1,N,07/01/2008,06/30/2009,1772,1,0,0,0,1,1,7139,6350,1000,33280,,,,3228,479,4074,19964,0,0,0,0,0,13361,0,178,3189,49,8,1404,7851,1400,850,16764,1311,0,5,51,2094,5,2332,2010,08,1,00,00,15,-151.853479,59.78047,02,122
AK,AK0002,AK0002-011,ANCHORAGE PUBLIC LIBRARY,3600 DENALI STREET,ANCHORAGE,99503,6055,ANCHORAGE,9073432975,NO,CO,MO,MA1,N,01/01/2008,12/31/2008,290588,1,4,0,25,34.3,88.3,11379926,314535,160908,12451320,4027685,3254597,7282282,811507,7234,1081747,12414421,1044142,62409,928459,3322010,2296409,658412,9888,33880,47726,65,1337,12532,871036,219414,170686,1591657,613097,6643,7660,956,44297,121,326606,2010,08,1,00,00,00,-149.876714,61.18792,02,020
AK,AK0003,AK0003-002,ANDERSON VILLAGE LIBRARY,101 FIRST STREET,ANDERSON,99744,3078,DENALI,9075822628,NO,CI,SO,CI1,N,07/01/2008,06/30/2009,275,1,0,0,0,0.25,0.4,6320,6350,0,13370,,,,2839,0,3639,13512,0,0,0,0,0,16529,0,191,1310,49,9,480,1520,300,145,1865,577,0,0,10,50,7,600,2010,08,2,00,00,00,-149.178545,64.34357,02,068
AK,AK0006,AK0006-002,KUSKOKWIM CONSORTIUM LIBRARY,420 STATE HIGHWAY,BETHEL,99559,0368,BETHEL,9075434516,NO,MJ,SO,CI1,N,07/01/2008,06/30/2009,5803,1,0,0,1,1,3.5,67600,6350,41669,304766,183104,93960,277064,27326,1718,34087,318932,0,0,0,0,0,38454,0,2442,1675,219,60,2458,18000,284,1360,13081,2531,92,141,178,2410,5,7904,2010,08,1,00,00,00,-161.760222,60.77014,02,050
AK,AK0007,AK0007-002,BIG LAKE PUBLIC LIBRARY,3140 SOUTH BIG LAKE ROAD,BIG LAKE,99652,0829,MATANUSKA-SUSITNA,9078926475,NO,CO,SO,CO1,N,07/01/2008,06/30/2009,9749,1,0,0,0,1,3.75,251139,6350,1000,258489,125679,67218,192897,21441,0,21441,258460,0,0,0,0,0,22170,0,1603,1763,49,25,2568,36129,13081,2755,40817,22438,108,239,265,6305,9,11527,2010,08,1,00,00,00,-149.819317,61.55251,02,170
AK,AK0008,AK0008-002,CANTWELL COMMUNITY LIBRARY,1 SCHOOL ROAD,CANTWELL,99729,0068,DENALI,9077682372,NO,NP,SO,CI1,N,07/01/2008,06/30/2009,200,1,0,0,0,0.38,0.76,4866,6350,6000,18950,,,,6038,0,6433,18904,0,0,0,0,0,11882,0,391,568,49,16,720,1940,320,172,3900,2005,25,55,22,93,2,650,2010,08,1,00,00,00,-148.677951,63.44362,02,068
AK,AK0011,AK0011-002,CHINIAK PUBLIC LIBRARY,43318 SPRUCE WAY,CHINIAK,99615,5610,KODIAK ISLAND,9074863022,NO,NP,SO,CI1,N,07/01/2008,06/30/2009,48,1,0,0,0,0,0,3000,6350,335,9685,,,,5108,0,6140,9197,0,0,0,0,0,2987,0,321,799,49,21,567,448,50,44,257,45,0,0,42,159,2,182,2010,08,1,00,00,00,-152.491432,57.74737,02,150
AK,AK0014,AK0014-002,COLD BAY PUBLIC LIBRARY,10 BARANOV STREET,COLD BAY,99571,0087,ALEUTIANS EAST,9075322878,NO,NP,SO,CI1,N,07/01/2008,06/30/2009,84,1,0,0,0,0,0,2500,6350,0,8850,,,,1947,0,3745,8914,0,0,0,0,0,7182,0,478,3050,74,25,480,1400,112,189,1870,796,0,3,36,246,3,275,2010,08,1,00,00,00,-161.128461,55.7397,02,013
AK,AK0015,AK0015-002,COOPER LANDING COMMUNITY LIBRARY,MILE .8 BEAN CREEK ROAD,COOPER LANDING,99572,0517,KENAI PENINSULA,9075951241,NO,NP,SO,CI1,N,07/01/2008,06/30/2009,344,1,0,0,0,0,0,0,6350,1000,17526,,,,4736,0,6294,20939,0,0,0,0,0,3541,0,535,765,49,0,1080,3267,78,650,2007,465,0,64,108,1008,3,813,2010,08,1,00,00,00,-150.134689,60.49075,02,122
AK,AK0016,AK0016-002,CORDOVA PUBLIC LIBRARY,622 FIRST STREET,CORDOVA,99574,1210,VALDEZ-CORDOVA,9074246667,NO,CI,SO,CI1,N,01/01/2008,12/31/2008,2126,1,0,0,0,3.8,6.2,420834,6350,1000,435534,222820,86674,309494,12502,901,18003,426841,0,0,0,0,0,21791,0,621,1356,51,61,2408,25627,698,2428,14992,6000,0,466,135,1634,5,10477,2010,08,1,00,00,00,-145.766016,60.54801,02,261
AK,AK0017,AK0017-003,CRAIG PUBLIC LIBRARY,504 THIRD STREET,CRAIG,99921,1050,PR WALES-OUTER KE,9078263281,NO,CI,SO,CI1,N,07/01/2008,06/30/2009,1400,1,0,0,0,1,2,99590,6350,5000,117297,,,,11611,0,16320,110910,0,0,0,0,0,11335,0,579,2092,49,61,1784,13881,5200,1800,21791,9305,0,216,85,939,4,3554,2010,08,1,00,00,00,-133.151451,55.47608,02,198
AK,AK0019,AK0019-002,DELTA COMMUNITY LIBRARY,2291 DEBORAH STREET,DELTA JUNCTION,99737,0229,SE FAIRBANK,9078954102,NO,CI,SO,CI1,N,07/01/2008,06/30/2009,1128,1,0,0,0,1,2.18,160293,6350,1000,167643,82076,36065,118141,7875,1025,9400,166643,0,0,0,0,0,14226,0,603,1577,50,12,2912,46737,6500,4713,43752,13533,220,103,104,3105,9,21320,2010,08,2,00,00,00,-145.713082,64.03256,02,240
AK,AK0020,AK0020-002,DILLINGHAM PUBLIC LIBRARY,306 D STREET WEST,DILLINGHAM,99576,0870,DILLINGHAM,9078425610,NO,CI,SO,CI1,N,07/01/2008,06/30/2009,2264,1,0,0,0,1,1.85,77686,6350,6000,101954,,,,4306,781,5658,101465,0,0,0,0,0,17193,0,105,1720,49,0,2288,14607,800,1483,10121,2545,0,150,7,76,6,6000,2010,08,1,00,00,00,-158.466804,59.04026,02,070
AK,AK0021,AK0021-002,EAGLE PUBLIC LIBRARY,2ND & AMUNDSEN,EAGLE,99738,0045,SE FAIRBANK,9075472334,NO,NP,SO,CI1,N,07/01/2008,06/30/2009,146,1,0,0,0,0.48,0.91,2000,6350,5000,16286,,,,2504,530,4804,14883,0,0,0,0,0,8874,0,665,1989,49,44,704,2850,206,168,4028,1246,0,116,39,373,3,950,2010,08,2,00,00,00,-141.201813,64.78648,02,240
AK,AK0022,AK0022-002,ERNEST NYLIN MEMORIAL LIBRARY,50 ELIM LOOP,ELIM,99739,0050,NOME,9078903501,NO,CI,SO,CI1,N,.,.,-3,-3,-3,-3,-3,-3,-3,-3,-3,-3,-3,,,,-3,-3,-3,-3,-3,-3,-3,-3,-3,-3,-3,-3,-3,-3,-3,-3,-3,-3,-3,-3,-3,-3,-3,-3,-3,-3,-3,2010,08,3,23,00,00,-162.073651,64.75812,02,180
AK,AK0023,AK0023-002,FAIRBANKS NORTH STAR BOROUGH PUBLIC LIBRARY,1215 COWLES STREET,FAIRBANKS,99701,4313,FAIRBANKS NORTH STAR,9074591020,NO,CO,MO,CO1,N,07/01/2008,06/30/2009,158867,1,1,1,10,11.75,51.25,5029460,24630,130470,5244813,2575995,1533307,4109302,357228,86574,531308,5190853,0,0,0,0,0,304050,1344,17840,22913,80,1000,5828,363411,79565,53552,624947,236550,8410,7287,829,29442,23,87618,2010,08,1,00,00,00,-147.73849,64.83845,02,090
AK,AK0025,AK0025-002,CHARLES EVANS COMMUNITY/SCHOOL LIBRARY,299 ANTOSKI DRIVE,GALENA,99741,0149,YUKON-KOYUKUK,9076561883,NO,CI,SO,CI1,N,07/01/2008,06/30/2009,564,1,0,0,0,0.38,0.38,24420,6350,0,31575,,,,3570,500,4480,30770,0,0,0,0,0,10575,0,52,894,49,39,750,2800,900,200,5119,1310,0,42,97,670,4,350,2010,08,1,00,00,00,-154.720238,65.96966,02,290
AK,AK0027,AK0027-002,COPPER VALLEY COMMUNITY LIBRARY,MILE 186 GLENN HIGHWAY,GLENNALLEN,99588,0173,VALDEZ-CORDOVA,9078225427,NO,NP,SO,CI1,N,07/01/2008,06/30/2009,473,1,0,0,0,0,0,0,6350,80,46465,,,,3730,319,6577,35532,0,27000,0,27000,0,27136,0,430,3557,49,29,1575,13000,750,2123,17663,5365,0,153,12,312,4,1380,2010,08,1,00,00,00,-146.369847,62.05552,02,261
AK,AK0028,AK0028-002,GUSTAVUS PUBLIC LIBRARY,14 GUSTAVUS ROAD,GUSTAVUS,99826,0279,SKAGWAY-ANGOON,9076972350,NO,CI,SO,CI1,N,07/01/2008,06/30/2009,451,1,0,0,0,0.88,0.88,51974,6350,6328,74976,,,,5100,0,6000,65168,0,0,0,0,0,10533,0,92,907,49,26,1250,8963,300,537,5149,2712,0,183,135,1706,4,3969,2010,08,1,00,00,00,-136.855874,58.83307,02,230
AK,AK0029,AK0029-002,HAINES BOROUGH PUBLIC LIBRARY,111 THIRD AVENUE SOUTH,HAINES,99827,1089,HAINES,9077662545,NO,CO,SO,CO1,N,07/01/2008,06/30/2009,2286,1,0,0,0,1,6.23,301216,6350,107397,457874,194219,89398,283617,18754,0,22030,432305,0,0,0,0,0,35379,63,2056,4676,49,143,2730,99286,14600,2640,99403,14871,789,183,717,5857,16,20778,2010,08,1,00,00,00,-135.446889,59.2363,02,100
AK,AK0030,AK0030-002,TRI-VALLEY COMMUNITY LIBRARY,400 SUNTRANA STREET,HEALY,99743,0518,DENALI,9076832507,NO,NP,SO,CI1,N,07/01/2008,06/30/2009,1002,1,0,0,0,0.6,0.6,15275,6350,0,53874,,,,8783,0,15371,40502,0,0,0,0,0,23801,0,850,1570,49,19,988,5852,650,862,16754,5182,5,163,64,1925,9,1156,2010,08,2,00,00,15,-148.563331,64.014,02,068
AK,AK0031,AK0031-002,HOLLIS PUBLIC LIBRARY,NO. 1 HOLLIS SCHOOL ROAD,HOLLIS,99950,0005,PR WALES-OUTER KE,9075307112,NO,NP,SO,CI1,N,07/01/2008,06/30/2009,193,1,0,0,0,0,0,3000,6350,80,13201,,,,4461,0,4611,10058,0,0,0,0,0,17115,0,530,256,49,15,750,1550,500,130,4056,2428,0,10,18,136,3,500,2010,08,1,00,00,15,-132.878786,55.76289,02,198
AK,AK0032,AK0032-002,HOMER PUBLIC LIBRARY,500 HAZEL AVENUE,HOMER,99603,7849,KENAI PENINSULA,9072353180,NO,CI,SO,CI1,N,01/01/2008,12/31/2008,5551,1,0,0,1,1,6.4,637618,6350,0,656521,302516,172274,474790,24616,0,26886,637118,0,0,0,0,0,36034,0,933,1957,50,161,2704,132402,18096,9341,99727,32793,737,1176,242,3655,19,51383,2010,08,1,00,00,00,-151.544372,59.63993,02,122
AK,AK0035,AK0035-004,JUNEAU PUBLIC LIBRARIES,292 MARINE WAY,JUNEAU,99801,1361,JUNEAU,9075865324,NO,CO,MO,CO1,N,07/01/2008,06/30/2009,40472,1,2,0,4.75,4.75,20.43,2365827,20304,90300,2489003,918275,789968,1708243,125467,21311,169132,2488052,0,0,0,0,0,119699,6863,4622,5207,74,453,7828,353877,19255,26634,208575,77874,4350,4448,431,13848,54,79486,2010,08,1,00,00,00,-134.400041,58.29759,02,110
AK,AK0037,AK0037-002,KASILOF PUBLIC LIBRARY,58200 STERLING HIGHWAY,KASILOF,99610,0176,KENAI PENINSULA,9072524097,NO,NP,SO,CI1,N,07/01/2008,06/30/2009,536,1,0,0,0,0.38,0.48,5600,11350,0,19398,,,,3190,0,3400,16089,0,0,0,0,0,15269,0,73,158,49,4,612,3200,308,567,5370,1661,0,30,28,156,3,310,2010,08,2,00,00,00,-151.225689,60.3424,02,122
AK,AK0038,AK0038-002,KENAI COMMUNITY LIBRARY,163 MAIN STREET LOOP,KENAI,99611,7723,KENAI PENINSULA,9072834378,NO,CI,SO,CI1,N,07/01/2008,06/30/2009,7115,1,0,0,2,2,7.5,612869,6350,5796,633962,292365,131360,423725,51883,5310,66009,639519,0,0,0,0,21718,78403,0,1405,3991,51,132,3040,99300,1484,15853,113994,29542,301,460,266,3478,15,21362,2010,08,1,00,00,00,-151.244012,60.55813,02,122
AK,AK0039,AK0039-002,KETCHIKAN PUBLIC LIBRARY,629 DOCK STREET,KETCHIKAN,99901,6589,KETCHIKAN GATEWAY,9072253331,NO,CO,SO,CO1,N,01/01/2008,12/31/2008,12984,1,0,0,3,3.65,11.75,968605,8204,1000,1013253,457559,243400,700959,90565,5499,141966,999789,407687,0,0,407687,407687,57583,0,4665,6462,52,166,2976,169488,11932,9415,151826,54167,538,331,216,5991,5,10781,2010,08,1,00,00,00,-131.650775,55.34479,02,130
AK,AK0040,AK0040-002,A. HOLMES JOHNSON MEMORIAL LIBRARY,319 LOWER MILL BAY ROAD,KODIAK,99615,7341,KODIAK ISLAND,9074868688,NO,CI,SO,CI2,N,07/01/2008,06/30/2009,13442,1,0,0,1,1,7.5,732920,8930,0,744718,356307,165431,521738,59420,0,64350,661005,0,0,0,0,0,69789,0,6088,4282,56,233,3344,149320,5471,14312,96615,30092,700,194,145,2978,10,51480,2010,08,1,00,00,00,-152.398502,57.79393,02,150
AK,AK0041,AK0041-002,CHUKCHI CONSORTIUM LIBRARY,604 THIRD STREET,KOTZEBUE,99752,0297,NORTHWEST ARCTIC,9074422410,NO,MJ,MO,CI2,N,07/01/2008,06/30/2009,4003,1,1,0,1,1,2.25,111731,12700,1000,236391,116161,54949,171110,17493,4137,40275,241563,0,0,0,0,0,12842,1977,468,1892,50,88,2912,20000,1800,1000,7147,4336,54,242,184,1425,5,7000,2010,08,1,00,00,00,-162.587444,66.89788,02,188
AK,AK0042,AK0042-002,KOYUKUK COMMUNITY LIBRARY,300 VISTA ROAD,KOYUKUK,99754,0029,YUKON-KOYUKUK,9079272224,ME,CI,SO,CI1,N,07/01/2008,06/30/2009,105,1,0,0,0,0.25,0.25,7000,6350,0,13350,,,,2378,500,3978,15515,0,0,0,0,0,2600,0,100,160,0,15,520,730,130,55,812,425,0,0,8,100,0,0,2010,08,1,08,00,00,-157.67622,64.88745,02,290
AK,AK0044,AK0044-002,MCGRATH COMMUNITY SCHOOL LIBRARY,CHINANA AVENUE,MCGRATH,99627,0249,YUKON-KOYUKUK,9075243843,NO,NP,SO,CI1,N,07/01/2008,06/30/2009,322,1,0,0,0,0.5,0.75,6000,6350,6000,24301,,,,4335,0,4335,18812,0,0,0,0,0,12639,0,51,142,49,14,1142,3015,162,337,1634,731,0,26,37,1079,4,2398,2010,08,1,00,00,00,-154.958831,62.94694,02,290
AK,AK0046,AK0046-002,CENTENNIAL LIBRARY,4TH & MILTON STREET,METLAKATLA,99926,0007,PR WALES-OUTER KE,9078866000,NO,NL,SO,CI1,N,07/01/2008,06/30/2009,1330,1,0,0,0,0.38,1.26,37079,6350,80,43812,,,,622,0,1662,37080,0,0,0,0,0,9134,0,66,219,49,26,780,1827,827,153,1511,467,0,16,3,23,2,613,2010,08,2,00,00,00,-131.582243,55.13203,02,198
AK,AK0047,AK0047-004,MARTIN MONSEN REGIONAL LIBRARY,101 MAIN STREET,NAKNEK,99633,0147,BRISTOL BAY,9072464465,NO,CO,MO,CI2,N,07/01/2008,06/30/2009,967,1,1,0,0,1,3,226644,12700,6415,246801,101244,58255,159499,10272,0,10272,219123,6000,0,0,6000,11348,16167,0,303,2835,49,14,3224,9576,316,414,6679,2819,0,62,52,753,6,4867,2010,08,1,00,00,00,-156.710141,58.84785,02,060
AK,AK0048,AK0048-002,NENANA PUBLIC LIBRARY,201 EAST SECOND STREET,NENANA,99760,0040,YUKON-KOYUKUK,9078325812,NO,CI,SO,CI1,N,07/01/2008,06/30/2009,353,1,0,0,0,1,1,73555,6350,0,82946,,,,3435,306,5501,80655,0,0,0,0,0,9115,0,523,1547,49,10,1664,8320,413,910,8428,1242,4,526,33,216,6,6240,2010,08,1,00,00,00,-149.092702,64.56222,02,290
AK,AK0051,AK0051-002,NINILCHIK COMMUNITY LIBRARY,15850 STERLING HIGHWAY,NINILCHIK,99639,0165,KENAI PENINSULA,9075673333,NO,NP,SO,CI1,N,07/01/2008,06/30/2009,824,1,0,0,0,0.38,0.38,0,15271,0,27892,,,,3519,0,4709,21824,0,0,0,0,0,12550,0,503,2319,49,2,1456,6188,401,904,16114,1375,0,13,38,231,3,1698,2010,08,1,00,00,00,-151.691726,60.0275,02,122
AK,AK0052,AK0052-002,KEGOAYAH KOZGA LIBRARY,223 FRONT STREET,NOME,99762,1168,NOME,9074436628,NO,CI,SO,CI1,N,07/01/2008,06/30/2009,3468,1,0,0,0.7,1.88,2.08,200562,6350,1000,210527,101538,51026,152564,10873,0,11347,207912,0,0,0,0,0,17929,0,541,910,49,37,2288,19000,1348,1603,5620,2418,0,90,44,444,4,10000,2010,08,1,00,00,00,-165.40543,64.49731,02,180
AK,AK0053,AK0053-002,NORTHWAY COMMUNITY/SCHOOL LIBRARY,MILE 5 NORTHWAY ROAD,NORTHWAY,99764,0496,SE FAIRBANK,9077782301,NO,NP,SO,CI1,N,07/01/2008,06/30/2009,88,1,0,0,0,0.25,0.25,0,9490,5000,14490,,,,3300,0,5420,13318,0,0,0,0,0,3323,0,67,220,49,77,500,1100,142,88,1590,1015,2,0,20,94,1,290,2010,08,1,00,00,00,-141.945631,62.94483,02,240
AK,AK0055,AK0055-002,PALMER PUBLIC LIBRARY,655 SOUTH VALLEY WAY,PALMER,99645,6667,MATANUSKA-SUSITNA,9077454690,NO,CO,SO,CO1,N,07/01/2008,06/30/2009,24697,1,0,0,1,1,9.5,807559,6350,1000,816573,279571,186948,466519,51000,0,51000,658878,0,0,0,0,0,54818,0,2295,2184,50,51,2496,101627,908,8228,121887,65542,256,148,237,6244,8,19984,2010,08,1,00,00,00,-149.113741,61.59847,02,170
AK,AK0056,AK0056-002,PELICAN PUBLIC LIBRARY,166 SALMON WAY,PELICAN,99832,0712,SKAGWAY-ANGOON,9077352500,NO,CI,SO,CI1,N,07/01/2008,06/30/2009,122,1,0,0,0,0.32,0.36,17106,6350,1000,25640,,,,3603,463,4114,25006,0,0,0,0,0,10513,0,609,2052,49,38,613,3640,168,354,8529,1772,0,23,187,764,2,721,2010,08,1,00,00,00,-136.135508,58.10796,02,230
AK,AK0057,AK0057-002,PETERSBURG PUBLIC LIBRARY,12 SOUTH NORDIC DRIVE,PETERSBURG,99833,0549,WRANGELL-PETERSBU,9077723349,NO,CI,SO,CI1,N,07/01/2008,06/30/2009,2973,1,0,0,1,1,3.5,257459,6350,13663,280272,146097,42278,188375,31589,0,51589,280864,0,0,0,0,0,29093,0,1639,5847,49,116,2600,51759,1703,3594,78528,21319,225,123,178,3542,2,5905,2010,08,1,00,00,00,-132.958255,56.80848,02,275
AK,AK0058,AK0058-002,JESSIE WAKEFIELD MEMORIAL LIBRARY,207 SPRUCE DRIVE,PORT LIONS,99550,0049,KODIAK ISLAND,9074542288,NO,CI,SO,CI1,N,07/01/2008,06/30/2009,200,1,0,0,0,0.38,0.38,9702,6350,0,18152,,,,1909,0,2520,18536,0,0,0,0,0,12141,0,55,380,49,10,780,1991,86,200,815,110,0,25,31,333,4,1465,2010,08,1,00,00,00,-152.883298,57.87453,02,150
AK,AK0061,AK0061-002,ST. PAUL ISLAND SCHOOL/COMMUNITY LIBRARY,930 TOLSTOL BOULEVARD,SAINT PAUL,99660,0905,ALEUTIANS WEST,9075463324,NO,MJ,SO,CI1,N,07/01/2008,06/30/2009,459,1,0,0,0,0.3,0.3,14966,6350,0,21316,,,,4372,467,4839,27096,0,0,0,0,0,14466,0,90,891,50,17,512,4400,500,212,3487,2421,0,1,42,140,10,2468,2010,08,1,00,00,00,-170.27885,57.18359,02,016
AK,AK0064,AK0064-002,SELDOVIA PUBLIC LIBRARY,260 SELDOVIA STREET,SELDOVIA,99663,0275,KENAI PENINSULA,9072347662,NO,NP,SO,CI1,N,07/01/2008,06/30/2009,241,1,0,0,0,0,0,0,6350,0,7190,,,,4655,0,5001,6950,0,0,0,0,0,10704,0,345,1773,49,25,700,3787,315,459,8405,3422,0,29,78,281,2,921,2010,08,1,00,00,00,-151.531478,59.64462,02,122
AK,AK0065,AK0065-002,SEWARD COMMUNITY LIBRARY,238 5TH AVENUE,SEWARD,99664,2389,KENAI PENINSULA,9072244082,NO,CI,SO,CI1,N,01/01/2008,12/31/2008,2609,1,0,0,1,3,4.5,359436,8883,0,384247,160112,96572,256684,30597,9284,42981,370564,0,0,0,0,0,32007,0,1147,1950,53,70,3172,87860,2475,5019,70811,17637,200,260,55,3694,11,19044,2010,08,1,00,00,00,-149.438759,60.10178,02,122
AK,AK0067,AK0067-002,KETTLESON MEMORIAL LIBRARY,320 HARBOR DRIVE,SITKA,99835,7570,SITKA,9077474021,NO,CO,SO,CO1,N,07/01/2008,06/30/2009,8627,1,0,0,2,2,7.71,830360,8520,0,859808,336594,220911,557505,63650,600,76200,824864,0,0,0,0,0,74520,0,5933,5725,51,350,3692,166372,6396,12194,125348,45025,1719,1697,322,6418,10,43503,2010,08,1,00,00,00,-135.334496,57.04958,02,220
AK,AK0068,AK0068-002,SKAGWAY PUBLIC LIBRARY,769 STATE STREET,SKAGWAY,99840,0394,SKAGWAY-ANGOON,9079832665,NO,CI,SO,CI1,N,07/01/2008,06/30/2009,865,1,0,0,0,1,1.8,180604,6350,0,188390,,,,9340,0,9545,186954,0,0,0,0,0,9654,0,276,1213,49,60,2320,12600,1864,1437,13559,1453,52,213,110,926,4,7305,2010,08,1,00,00,00,-135.308005,59.46061,02,230
AK,AK0069,AK0069-002,SOLDOTNA PUBLIC LIBRARY,235 NORTH BINKLEY STREET,SOLDOTNA,99669,7523,KENAI PENINSULA,9072624227,NO,CI,SO,CI1,N,07/01/2008,06/30/2009,4021,1,0,0,0,1,5,429009,6350,948,436307,187370,101830,289200,50437,0,50437,414992,0,0,0,0,325000,41809,0,2738,1875,49,140,3068,93561,17011,14884,113811,35203,88,311,97,2350,6,16160,2010,08,2,00,00,00,-151.072559,60.49234,02,122
AK,AK0070,AK0070-002,SUTTON PUBLIC LIBRARY,11317 NORTH JONESVILLE MINE ROAD,SUTTON,99674,0266,MATANUSKA-SUSITNA,9077454467,NO,CO,SO,CO1,N,07/01/2008,06/30/2009,3678,1,0,0,0,1,1.75,182629,6350,8220,197199,,,,15888,0,15888,197201,0,0,0,0,0,13522,0,970,1100,49,40,2132,12099,375,975,14441,8285,37,184,222,5770,2,2354,2010,08,1,00,00,00,-148.943896,61.7554,02,170
AK,AK0071,AK0071-002,TAKOTNA COMMUNITY LIBRARY,RIVERSIDE DRIVE,TAKOTNA,99675,7529,YUKON-KOYUKUK,9072982229,NO,NL,SO,CI1,N,07/01/2008,06/30/2009,53,1,0,0,0,0.38,0.38,18214,6350,6000,30564,,,,3099,0,3099,22576,0,0,0,0,0,2867,0,83,181,49,15,780,1340,370,50,1263,443,0,3,27,87,3,1180,2010,08,1,00,00,00,-156.124971,62.97515,02,290
AK,AK0072,AK0072-002,TALKEETNA PUBLIC LIBRARY,23151 SOUTH TALKEETNA SPUR ROAD,TALKEETNA,99676,0768,MATANUSKA-SUSITNA,9077332359,NO,CO,SO,CO1,N,07/01/2008,06/30/2009,6746,1,0,0,0,1,2.1,178089,6350,12999,197438,107128,41442,148570,19742,0,19742,197335,0,0,0,0,0,12968,0,866,1494,52,38,2184,24960,6039,2513,37219,13587,80,265,65,1081,6,9940,2010,08,1,00,00,00,-149.889417,62.17843,02,170
AK,AK0073,AK0073-002,TANANA COMMUNITY/SCHOOL LIBRARY,89 FRONT STREET,TANANA,99777,7109,YUKON-KOYUKUK,9073667356,NO,NP,SO,CI1,N,07/01/2008,06/30/2009,251,1,0,0,0,0.25,0.25,5000,6350,1000,21350,,,,1700,500,3200,21050,0,0,0,0,0,11340,0,530,450,49,50,340,2500,250,251,2897,200,0,84,23,175,4,2000,2010,08,1,00,00,00,-151.892209,65.3268,02,290
AK,AK0074,AK0074-002,DERMOTT O'TOOLE MEMORIAL LIBRARY,707 WEST TENAKEE AVENUE,TENAKEE SPRINGS,99841,0035,SKAGWAY-ANGOON,9077362248,NO,CI,SO,CI1,N,07/01/2008,06/30/2009,104,1,0,0,0,0.25,0.25,7839,6350,1000,16565,,,,2905,0,4655,16655,0,0,0,0,0,5951,0,107,1404,49,3,552,1221,363,152,1936,599,0,38,15,74,2,252,2010,08,2,00,00,00,-135.212133,57.77754,02,230
AK,AK0075,AK0075-002,TOK COMMUNITY LIBRARY,MILE 1314 ALASKA HIGHWAY,TOK,99780,0227,SE FAIRBANK,9078835623,NO,NP,SO,CI1,N,07/01/2008,06/30/2009,1429,1,0,0,0,0,0,0,12850,0,16300,,,,3965,0,5122,14834,0,0,0,0,0,12923,268,379,1256,49,5,1101,1934,98,862,2530,399,0,22,5,105,1,665,2010,08,1,00,00,00,-142.249751,63.9214,02,240
AK,AK0076,AK0076-002,TICASUK LIBRARY,28 HAPPY VALLEY ROAD,UNALAKLEET,99684,0028,NOME,9076243053,NO,CI,SO,CI1,N,07/01/2008,06/30/2009,725,1,0,0,0,0.43,0.43,10594,6350,0,16944,,,,1748,0,3788,17608,0,0,0,0,0,4286,0,248,118,49,11,850,1000,100,725,500,155,0,21,13,90,1,505,2010,08,2,08,00,15,-160.921,63.631463,02,180
AK,AK0077,AK0077-002,VALDEZ CONSORTIUM LIBRARY,212 FAIRBANKS STREET,VALDEZ,99686,0609,VALDEZ-CORDOVA,9078354632,NO,MJ,SO,CI1,N,01/01/2008,12/31/2008,3475,1,0,0,0,0.93,3.52,351399,6350,0,374609,160377,60092,220469,20117,0,26019,331913,0,0,0,0,0,46074,0,6183,3886,49,136,2654,30831,9600,1090,19845,3803,222,60,26,533,5,9801,2010,08,1,00,00,00,-146.353761,61.12918,02,261
AK,AK0078,AK0078-002,WASILLA PUBLIC LIBRARY,391 NORTH MAIN STREET,WASILLA,99654,7085,MATANUSKA-SUSITNA,9073732242,NO,CO,SO,CO1,N,07/01/2008,06/30/2009,30144,1,0,0,3,3,9.4,776500,6350,1000,825115,412867,196561,609428,74753,1100,92024,825115,0,0,0,0,0,53820,0,1947,3040,51,76,2198,88023,3355,9832,145637,77026,590,425,181,7634,7,17427,2010,08,1,00,00,00,-149.441507,61.58256,02,170
AK,AK0080,AK0080-002,WILLOW PUBLIC LIBRARY,23557 WEST WILLOW COMMUNITY CENTER,WILLOW,99688,0129,MATANUSKA-SUSITNA,9074957323,NO,CO,SO,CO1,N,07/01/2008,06/30/2009,7717,1,0,0,0,1,2.37,237153,6350,931,244434,108047,64729,172776,22919,0,22919,244273,0,0,0,0,0,22582,0,988,1765,51,116,2106,32356,1056,2361,34975,13424,361,461,138,4634,8,8631,2010,08,1,00,00,00,-150.98442,61.67003,02,170
AK,AK0081,AK0081-002,IRENE INGLE PUBLIC LIBRARY,124 SECOND AVENUE,WRANGELL,99929,0679,WRANGELL,9078743535,NO,CO,SO,CO1,N,07/01/2008,06/30/2009,2058,1,0,0,0,1,2.5,228072,6350,5000,243060,97615,87264,184879,21528,2338,25604,239422,0,0,0,0,0,36344,0,1258,2094,49,72,1976,27113,6025,1110,30788,11580,0,316,46,1248,4,7498,2010,08,1,00,00,00,-132.378872,56.45098,02,275
AK,AK0082,AK0082-002,AKIAK SCHOOL/COMMUNITY LIBRARY,1 KILBUCK ROAD,AKIAK,99552,0049,BETHEL,9077654601,NO,NL,SO,CI1,N,07/01/2008,06/30/2009,346,1,0,0,0,0.7,0.7,26635,6350,0,32985,,,,11113,1898,14524,38953,0,0,0,0,0,8005,0,63,201,50,34,690,5307,145,272,3840,1188,8,20,286,2178,1,529,2010,08,2,00,00,00,-161.191724,60.88718,02,050
AK,AK0085,AK0085-002,FRANCES KIBBLE KENNY LAKE PUBLIC LIBRARY,MILE 5 EDGERTON HIGHWAY,KENNY LAKE,99573,9704,VALDEZ-CORDOVA,9078223015,NO,NP,SO,CI1,N,07/01/2008,06/30/2009,412,1,0,0,0,0,0,0,14150,0,21764,,,,2063,0,3268,10404,0,2200,0,2200,11058,6750,0,300,700,49,3,936,2560,93,286,2796,800,0,76,8,190,2,838,2010,08,1,00,00,00,-143.873988,61.66443,02,261
AK,AK0091,AK0091-002,TULUKSAK SCHOOL/COMMUNITY LIBRARY,PHILLIP STREET,TULUKSAK,99679,0115,BETHEL,9076955636,NO,NL,SO,CI1,N,07/01/2008,06/30/2009,471,1,0,0,0,0.25,0.5,11030,6350,1000,18380,,,,3260,0,3560,17830,0,0,0,0,0,8562,0,39,410,50,20,520,5200,510,200,4794,1897,50,100,37,465,2,1000,2010,08,1,00,00,00,-160.95319,61.10831,02,050
AK,AK0092,AK0092-002,NAQIAKSRAT LIBRARY,ROCKY ROAD & FISH RIVER ROAD,WHITE MOUNTAIN,99784,0130,NOME,9076383411,NO,CI,SO,CI1,N,07/01/2008,06/30/2009,202,1,0,0,0,0.3,0.3,8241,6350,0,14591,,,,4299,300,4599,15040,0,0,0,0,0,5425,0,129,65,49,61,582,2487,431,202,1385,551,0,6,103,953,1,82,2010,08,1,00,00,00,-162.561429,65.00544,02,180
AK,AK0094,AK0094-010,TUZZY CONSORTIUM LIBRARY,5421 NORTH STAR STREET,BARROW,99723,2130,NORTH SLOPE,9078524050,NO,MJ,MO,CO1,N,07/01/2008,06/30/2009,6785,1,7,0,2,3,13,690165,50800,170866,1131458,443267,244396,687663,38704,4379,57324,785730,800000,0,5100000,5900000,0,51137,4094,3840,6498,53,167,5752,52341,1200,1825,27920,1371,50,158,309,3413,11,13449,2010,08,1,00,00,00,-156.75342,71.29845,02,185
AK,AK0095,AK0095-002,AKIACHAK SCHOOL/COMMUNITY LIBRARY,1 MAIN STREET,AKIACHAK,99551,0190,BETHEL,9078253600,NO,NL,SO,CI1,N,07/01/2008,06/30/2009,645,1,0,0,0,0.6,0.6,10500,6350,0,16850,,,,5640,0,5640,18893,0,0,0,0,0,11135,0,300,405,49,10,480,6451,150,490,3165,979,30,30,439,3992,2,3065,2010,08,2,00,00,00,-161.409778,60.8781,02,050
AK,AK0097,AK0097-002,ESTHER GREENWALD LIBRARY,366 GARTEENI HIGHWAY,HOONAH,99829,0157,SKAGWAY-ANGOON,9079453611,NO,CI,SO,CI1,N,07/01/2008,06/30/2009,764,1,0,0,0,0.65,0.65,27500,6350,5000,38850,,,,4540,1160,6072,37578,0,0,0,0,0,20599,0,85,967,51,26,720,12231,288,698,6117,3505,0,27,138,2721,6,6886,2010,08,1,00,00,00,-135.437574,58.10915,02,230
AK,AK0099,AK0099-002,MOOSE PASS PUBLIC LIBRARY,200 DEPOT ROAD,MOOSE PASS,99631,0154,KENAI PENINSULA,9072883111,NO,NP,SO,CI1,N,07/01/2008,06/30/2009,189,1,0,0,0,0,0,0,6350,1000,8250,,,,4450,0,7025,11655,0,0,0,0,0,5789,0,406,1673,49,15,610,2281,247,200,6672,1751,0,117,30,324,2,338,2010,08,1,00,00,00,-149.508366,60.52465,02,122
AK,AK0100,AK0100-002,NIKOLAI COMMUNITY/SCHOOL LIBRARY,TOP OF THE KUSKOKWIM SCHOOL BUILDIN,NIKOLAI,99691,9091,YUKON-KOYUKUK,9072932427,NO,CI,SO,CI1,N,07/01/2008,06/30/2009,87,1,0,0,0,0.25,0.25,1850,6350,7164,15364,,,,1533,2222,3755,15363,0,0,0,0,0,4150,0,100,140,49,11,480,2100,100,75,630,195,0,0,174,1430,8,1050,2010,08,2,00,00,00,-154.374475,63.00669,02,290
AK,AK0101,AK0101-002,SAND POINT COMMUNITY/SCHOOL LIBRARY,123 RED COVE ROAD,SAND POINT,99661,0269,ALEUTIANS EAST,9073832393,NO,CI,SO,CI1,N,07/01/2008,06/30/2009,1001,1,0,0,0,0.38,0.38,48103,6350,0,54453,,,,12550,650,14580,54510,0,0,0,0,0,5500,0,20,554,49,68,765,26500,1800,925,25230,23905,6,34,316,2740,20,13500,2010,08,1,00,00,00,-160.487593,55.34761,02,013
AK,AK0102,AK0102-002,EGEGIK VILLAGE LIBRARY,289 AIRPORT WAY,EGEGIK,99579,0029,LAKE AND PENINSULA,9072332211,NO,NL,SO,CI1,N,07/01/2008,06/30/2009,73,1,0,0,0,0.25,0.25,11221,6350,0,17571,,,,500,0,700,17668,0,0,0,0,0,5186,0,320,450,49,10,520,1140,220,60,1399,631,0,0,65,216,1,520,2010,08,1,00,00,00,-157.335327,58.17839,02,164
AK,AK0103,AK0103-002,TRAPPER CREEK PUBLIC LIBRARY,8901 EAST DEVONSHIRE DRIVE,TRAPPER CREEK,99683,0388,MATANUSKA-SUSITNA,9077331546,NO,CO,SO,CO1,N,07/01/2008,06/30/2009,1584,1,0,0,0,0.75,0.99,94184,6350,0,100534,,,,14159,0,14159,99272,0,0,0,0,0,13117,0,993,1221,51,37,1270,4553,620,489,7249,2566,0,100,79,884,5,1673,2010,08,1,00,00,00,-150.321414,61.41243,02,170
AK,AK0104,AK0104-002,HOLY CROSS COMMUNITY/SCHOOL LIBRARY,210 TRAILWAY STREET,HOLY CROSS,99602,0210,YUKON-KOYUKUK,9074767131,NO,CI,SO,CI1,N,07/01/2008,06/30/2009,187,1,0,0,0,0.1,0.35,1850,6350,8441,16641,,,,3393,0,3393,15634,0,0,0,0,0,4569,0,290,280,49,25,480,780,40,315,845,775,0,0,3,51,2,315,2010,08,1,00,00,00,-160.443036,62.22932,02,290
AK,AK0113,AK0113-002,OUZINKIE TRIBAL MEDIA CENTER,130 THIRD STREET,OUZINKIE,99644,0130,KODIAK ISLAND,9076802323,NO,NL,SO,CI1,N,07/01/2008,06/30/2009,170,1,0,0,0,0.33,0.7,2650,6350,6000,15000,,,,3333,0,3637,15000,0,0,0,0,0,2504,0,10,322,49,6,2340,3200,1200,164,2140,453,0,15,34,72,6,2600,2010,08,1,00,00,00,-152.508261,57.92122,02,150
AK,AK0114,AK0114-002,ST. GEORGE ISLAND SCHOOL/COMMUNITY LIBRARY,NO. 1 ELEMENTARY SCHOOL ROAD,ST. GEORGE,99591,0959,ALEUTIANS WEST,9075463324,NO,MJ,SO,CI1,N,07/01/2008,06/30/2009,111,1,0,0,0,0.25,0.25,11016,6350,0,19316,,,,3796,233,4029,21315,0,0,0,0,0,4975,0,0,57,49,8,480,1022,22,95,350,78,0,0,57,295,5,465,2010,08,1,00,00,00,-169.619142,56.58272,02,016
AK,AK0115,AK0115-002,UNALASKA PUBLIC LIBRARY,63 ELEANOR DRIVE,UNALASKA,99685,1370,ALEUTIANS WEST,9075815060,NO,CI,SO,CI1,N,07/01/2008,06/30/2009,3662,1,0,0,1,1,4.5,508175,6350,0,532881,232878,135882,368760,30073,4018,41978,519525,0,0,0,0,0,31295,0,1832,16583,49,138,3484,109184,23884,5668,197743,30046,56,2988,203,7614,21,68786,2010,08,1,00,00,00,-166.529689,53.87054,02,016
AK,AK0116,AK0116-002,ANIAK PUBLIC LIBRARY,270 RIVERFRONT DRIVE,ANIAK,99557,0270,BETHEL,9076754370,NO,CI,SO,CI1,N,07/01/2008,06/30/2009,485,1,0,0,0,0.25,0.25,0,6350,7000,16050,,,,1200,0,3350,15050,0,0,0,0,0,4200,0,90,1000,49,0,650,2250,200,485,1500,250,0,13,17,106,6,1250,2010,08,1,00,00,00,-156.683203,61.4908,02,050
AK,AK0117,AK0117-002,HYDER PUBLIC LIBRARY,50 MAIN STREET,HYDER,99923,0050,PR WALES-OUTER,2506369148,NO,NP,SO,CI1,N,07/01/2008,06/30/2009,87,1,0,0,0,0,0,0,6350,0,12375,,,,2575,0,3575,9075,0,0,0,0,0,7836,0,0,700,49,30,480,1150,250,72,476,255,0,5,121,771,1,145,2010,08,1,00,00,00,-130.036515,55.92994,02,198
AK,AK0120,AK0120-002,INNOKO RIVER COMMUNITY/SCHOOL LIBRARY,101 PINE STREET,SHAGELUK,99665,0049,YUKON-KOYUKUK,9074738206,NO,CI,SO,CI1,N,07/01/2008,06/30/2009,97,1,0,0,0,0.43,0.68,1850,6350,6350,14550,,,,2689,0,3565,12782,0,0,0,0,0,3824,0,25,245,49,2,850,2100,400,85,983,752,0,2,49,160,7,1500,2010,08,1,00,00,00,-159.798143,62.64145,02,290
AK,AK0121,AK0121-002,ANVIK COMMUNITY/SCHOOL LIBRARY,1 AIRPORT ROAD,ANVIK,99558,0090,YUKON-KOYUKUK,9076636348,NO,CI,SO,CI1,N,07/01/2008,06/30/2009,75,1,0,0,0,0.25,0.25,1850,6350,6340,14540,,,,4171,0,4171,11323,0,0,0,0,0,4091,0,300,100,49,24,480,1520,100,89,854,264,0,0,53,375,3,540,2010,08,2,00,00,00,-160.128556,63.27254,02,290
AK,AK0122,AK0122-002,GRAYLING COMMUNITY/SCHOOL LIBRARY,DAVID LOUIS SCHOOL BUILDING,GRAYLING,99590,0090,YUKON-KOYUKUK,9074535135,NO,CI,SO,CI1,N,07/01/2008,06/30/2009,177,1,0,0,0,0.25,0.25,2700,6350,4305,13355,,,,2808,0,4586,13355,0,0,0,0,0,6812,0,119,395,49,0,480,1417,580,177,460,77,0,0,26,221,4,890,2010,08,1,00,00,00,-159.683027,64.07926,02,290
AK,AK0124,AK0124-002,LAKE MINCHUMINA COMMUNITY LIBRARY,123 AIRPORT WAY,LAKE MIN,99757,0050,YUKON-KOYUKUK,9076743211,NO,NP,SO,CI1,N,07/01/2008,06/30/2009,17,1,0,0,0,0,0,0,6350,0,8300,,,,3116,0,3116,8300,0,0,0,0,0,3979,0,198,415,49,23,624,824,600,62,1757,543,0,0,29,254,2,624,2010,08,2,00,00,00,-152.385396,63.8005,02,290
AK,AK0126,AK0126-002,IGIUGIG TRIBAL LIBRARY,1 AIRPORT ROAD,IGIUGIG,99613,4008,LAKE AND PENINSULA,9075333211,NO,NL,SO,CI1,N,07/01/2008,06/30/2009,48,1,0,0,0.1,0.5,0.6,5933,6350,6000,20233,,,,3398,0,3535,20233,0,0,0,0,0,8045,0,162,398,50,13,539,1198,569,105,1548,1037,3,13,75,170,5,358,2010,08,1,00,00,00,-156.48296,58.73102,02,164
AK,AK0127,AK0127-002,COFFMAN COVE COMMUNITY LIBRARY,105 DENALI ALLEY,COFFMAN COVE,99918,0135,PR WALES-OUTER KE,9073292233,NO,CI,SO,CI1,N,07/01/2008,06/30/2009,152,1,0,0,0,0,0,16400,6350,895,24845,,,,10251,0,10251,24757,3500,0,0,3500,3500,13969,0,0,0,49,0,2890,4887,119,194,6266,1127,0,0,25,256,4,3682,2010,08,1,00,00,07,-132.827778,56.013889,02,198
AK,AK0129,AK0129-002,MOUNTAIN VILLAGE PUBLIC LIBRARY,1 SAINT MARY'S HIGHWAY,MOUNTAIN VILLAGE,99632,0085,WADE HAMPTON,9075912970,NO,CI,SO,CI1,N,.,.,-3,-3,-3,-3,-3,-3,-3,-3,-3,-3,-3,,,,-3,-3,-3,-3,-3,-3,-3,-3,-3,-3,-3,-3,-3,-3,-3,-3,-3,-3,-3,-3,-3,-3,-3,-3,-3,-3,-3,2010,08,3,03,00,00,-164.537503,62.1696,02,270
AK,AK0130,AK0130-002,THORNE BAY PUBLIC LIBRARY,120 FREEMAN DRIVE,THORNE BAY,99919,0489,PR WALES-OUTER KE,9078283303,NO,CI,SO,CI1,N,07/01/2008,06/30/2009,424,1,0,0,0,0.43,0.43,13841,6350,120,20311,,,,2951,0,3400,20888,0,0,0,0,0,4374,0,124,993,50,10,1230,2139,245,363,2636,713,0,167,25,188,2,665,2010,08,1,00,00,00,-132.52418,55.68823,02,198
AK,AK0133,AK0133-002,PILOT POINT TRIBAL LIBRARY,2200 MAIN STREET,PILOT POINT,99649,0449,LAKE AND PENINSULA,9077972208,NO,NL,SO,CI1,N,07/01/2008,06/30/2009,66,1,0,0,0,0.4,0.43,7000,6350,0,13350,,,,1676,0,2816,18202,0,0,0,0,0,1417,0,20,40,49,19,1300,1275,120,90,1294,400,3,0,23,94,1,700,2010,08,2,00,00,00,-157.384464,57.52567,02,164
AK,AK0134,AK0134-001,WHALE PASS COMMUNITY LIBRARY,BEACH ROAD LOT 3 BLOCK 14,WHALE PASS,99950,2080,PR WALES-OUTER KE,9078465226,NO,CI,SO,CI1,N,07/01/2008,06/30/2009,60,1,0,0,0,0,0,0,6350,0,11139,,,,1683,0,3284,9360,0,0,0,0,0,5169,0,314,1956,49,30,650,1656,120,124,2243,694,0,0,34,288,2,859,2010,08,2,00,00,00,-132.878786,55.76289,02,198
AK,AK0135,AK0135-001,TOGIAK PUBLIC LIBRARY AND CULTURAL CENTER,SECOND AVENUE AND G STREET,TOGIAK,99678,0353,DILLINGHAM,9074935566,NO,NP,SO,CI1,N,07/01/2008,06/30/2009,820,1,0,0,0,0,0,0,6350,6000,19215,,,,6040,0,6040,22496,0,0,0,0,0,7899,0,0,150,49,24,1500,1800,160,350,2174,1266,0,20,4,70,2,1500,2010,08,1,00,00,00,-160.391925,59.06007,02,070
AK,AK0136,AK0136-001,SCAMMON BAY PUBLIC LIBRARY,101 ASKINUK STREET,SCAMMON BAY,99662,0110,WADE HAMPTON,9075585400,NO,CI,SO,CI1,N,07/01/2008,06/30/2009,528,1,0,0,0,0,0,0,6350,0,6350,,,,3500,0,3500,6350,0,0,0,0,0,3700,0,200,30,49,0,1248,900,50,475,250,150,0,0,12,95,1,650,2010,08,1,00,00,00,-165.080055,61.79161,02,270
AK,AK0137,AK0137-001,KLUKWAN COMMUNITY/SCHOOL LIBRARY,315 MISSION STREET,KLUKWAN,99827,9800,HAINES,9077675551,NO,MJ,SO,CI1,N,07/01/2008,06/30/2009,72,1,0,0,0,1.25,1.25,494,6350,49200,56212,,,,3934,0,3934,46223,0,0,0,0,0,5543,0,117,542,49,29,780,3000,1960,145,2929,906,0,10,187,1567,3,928,2010,08,2,02,00,00,-135.443134,59.230122,02,100
AL,AL0001,100-000,CARL ELLIOTT REGIONAL LIBRARY SYSTEM,98 18TH STREET EAST,JASPER,35501,5491,WALKER,2052212568,HQ,MJ,SO,MC1,N,10/01/2008,09/30/2009,66833,1,0,0,1,3,3.5,84761,102361,0,225534,109257,23044,132301,23853,0,23853,243357,14000,0,1500,30699,30699,4415,0,0,0,61,0,2250,233079,39798,91,2912,0,2012,2449,0,0,3,3517,2010,05,2,00,00,00,-87.273906,33.83339,01,127
AL,AL0002,100-001,ARLEY PUBLIC LIBRARY,6788 COUNTY ROAD 41,ARLEY,35541,0146,WINSTON,2053870129,ME,CI,SO,CI1,N,10/01/2008,09/30/2009,320,1,0,0,0,0.5,0.5,23314,0,2000,26595,,,,2277,0,2277,26595,10940,0,1500,12440,12440,7989,0,39,25,61,0,1820,7805,3460,1261,9379,3041,82,193,148,4081,5,1359,2010,05,1,00,00,00,-87.2234,34.04997,01,133
AL,AL0003,100-002,CORDOVA PUBLIC LIBRARY,84 MAIN STREET,CORDOVA,35550,1415,WALKER,2054839578,ME,CI,SO,CI1,N,10/01/2008,09/30/2009,2283,1,0,0,0,0.5,0.5,14638,0,2000,16830,,,,2325,0,2325,16830,512,0,0,512,512,9478,0,15,0,61,0,1040,8684,553,154,6057,1254,76,58,5,350,3,158,2010,05,2,00,00,15,-87.182924,33.75642,01,127
AL,AL0005,100-004,DOUBLE SPRINGS PUBLIC LIBRARY,637 BLAKE DRIVE,DOUBLE SPRINGS,35553,0555,WINSTON,2054892412,ME,CI,SO,CI1,N,10/01/2008,09/30/2009,983,1,0,0,0,1,1,28615,0,2000,31468,,,,2117,0,2117,31468,0,0,1500,1500,1500,9398,0,4,0,61,0,2236,3739,1320,1232,5638,1706,11,38,26,782,4,579,2010,05,2,00,00,00,-87.383461,34.14703,01,133
AL,AL0006,100-005,HALEYVILLE PUBLIC LIBRARY,913 20TH STREET,HALEYVILLE,35565,1323,WINSTON,2054867450,ME,CI,SO,CI1,N,10/01/2008,09/30/2009,4076,1,0,0,0,1,2,63302,0,2000,67321,,,,3506,0,3506,67321,3500,0,1500,5000,5000,10337,0,20,24,61,0,2496,15504,3287,2614,8173,2267,24,119,17,982,4,723,2010,05,2,00,00,00,-87.623386,34.2263,01,133
AL,AL0007,100-006,JASPER PUBLIC LIBRARY,98 EAST 18TH STREET,JASPER,35501,5491,WALKER,2052218512,ME,CI,SO,CI1,N,10/01/2008,09/30/2009,13978,1,0,0,1,2,3.5,182009,0,0,186078,98064,23862,121926,16650,0,16650,186078,0,0,1500,1500,1500,42388,0,895,910,61,0,2288,54583,10105,10462,71783,11474,193,488,46,1398,9,5059,2010,05,2,00,00,00,-87.273906,33.83339,01,127
AL,AL0009,100-008,SUMITON PUBLIC LIBRARY,416 STATE STREET,SUMITON,35148,0010,WALKER,2056487451,ME,CI,SO,CI1,N,10/01/2008,09/30/2009,2554,1,0,0,0,0.75,1.5,41069,0,2000,43777,,,,2356,0,2356,43777,0,0,1500,1500,1500,8558,0,0,0,61,0,2132,9714,2060,868,6564,2220,31,42,6,484,4,532,2010,05,2,00,00,00,-87.049527,33.74957,01,127
AL,AL0010,101-000,CHEAHA REGIONAL LIBRARY,935 COLEMAN STREET,HEFLIN,36264,1313,CLEBURNE,2564637125,HQ,MJ,MA,MC2,N,10/01/2008,09/30/2009,97376,1,0,2,0,1,3,8000,93634,1500,104656,48000,13558,61558,4800,1200,11458,91318,0,0,0,0,0,20643,135,2889,241,82,2,5640,2128,941,9794,84214,26749,569,243,8,94,6,109,2010,05,1,00,00,00,-85.588945,33.64375,01,029
AL,AL0011,101-001,ROANOKE - ANNIE L. AWBREY PUBLIC LIBRARY,736 COLLEGE STREET,ROANOKE,36274,1616,RANDOLPH,3348632632,ME,CI,SO,CI1,N,10/01/2008,09/30/2009,6613,1,0,0,0,1,4,93620,6928,1331,118233,62787,15427,78214,6275,0,15873,117800,0,0,0,0,0,17887,0,544,14,74,29,2154,29656,1822,4887,50902,11864,20,52,70,1468,11,11302,2010,05,1,00,00,00,-85.370667,33.1495,01,111
AL,AL0012,101-002,ASHLAND CITY PUBLIC LIBRARY,11 2ND AVENUE NORTH,ASHLAND,36251,0296,CLAY,2563543427,ME,CI,SO,CI1,N,10/01/2008,09/30/2009,1873,1,0,0,0,1,3,54812,2873,1500,68175,36440,8987,45427,4252,0,4713,67045,0,0,0,0,0,22218,0,357,1341,61,9,2184,14703,1113,3333,24367,11807,5,1,75,1265,8,3856,2010,05,1,00,00,15,-85.837992,33.27473,01,027
AL,AL0013,999-028,SYLACAUGA - B. B. COMER MEMORIAL LIBRARY,314 NORTH BROADWAY AVENUE,SYLACAUGA,35150,2528,TALLADEGA,2562490961,NO,CI,SO,CI1,N,10/01/2008,09/30/2009,12871,1,0,0,1,2,14,602626,12884,14550,684618,375257,80911,456168,38680,30686,72803,687668,0,0,0,0,0,93431,0,1463,43,66,164,2808,78354,27109,28807,191536,78505,68,126,234,11712,57,22092,2010,05,1,00,06,00,-86.250724,33.17185,01,121
AL,AL0014,101-004,CHEROKEE COUNTY PUBLIC LIBRARY,310 MARY STREET,CENTRE,35960,2026,CHEROKEE,2569275838,ME,CO,SO,CO1,N,10/01/2008,09/30/2009,3462,1,0,0,0,1,3,136826,11000,0,162326,62620,25500,88120,15600,1600,22305,157925,0,0,0,0,0,28381,0,1337,200,81,0,2000,30456,4752,8069,68935,15060,2,97,11,1775,7,9,2010,05,1,00,00,00,-85.67641,34.14928,01,019
AL,AL0015,101-005,CHILDERSBURG - EARLE A. RAINWATER MEMORIAL LIBRARY,124 NINTH AVENUE SW,CHILDERSBURG,35044,1642,TALLADEGA,2563787239,ME,CI,SO,CI1,N,10/01/2008,09/30/2009,5026,1,0,0,0,2,5,124323,4643,2893,153080,74471,18816,93287,29894,0,31344,154935,0,0,2893,2893,2893,43986,0,2281,2289,61,31,2540,21752,725,10075,46225,14657,11,43,50,753,14,13338,2010,05,1,00,00,00,-86.355664,33.27752,01,121
AL,AL0016,101-006,LINCOLN PUBLIC LIBRARY,49 COMPLEX DRIVE,LINCOLN,35096,5096,TALLADEGA,2057637777,ME,CI,SO,CI1,N,10/01/2008,09/30/2009,5514,1,0,0,0,1.6,2.1,98161,5514,0,104875,44876,17435,62311,8514,0,8514,91675,0,0,0,0,0,16640,0,248,308,61,5,2499,9004,4780,2788,8875,3214,12,20,19,262,6,5048,2010,05,1,00,00,00,-86.122667,33.6044,01,121
AL,AL0017,101-007,LINEVILLE PUBLIC LIBRARY,60119 HIGHWAY 49,LINEVILLE,36266,0482,CLAY,2563965162,ME,CI,SO,CI1,N,10/01/2008,09/30/2009,2367,1,0,0,0,1,2,21839,2154,1500,31942,,,,1753,0,2343,32287,0,0,0,0,0,14492,0,634,0,81,1,1757,6574,1287,2559,10987,1772,6,0,7,397,3,339,2010,05,1,00,00,00,-85.754449,33.31468,01,027
AL,AL0018,101-008,HEFLIN - LUCILE L. MORGAN PUBLIC LIBRARY,541 ROSS STREET,HEFLIN,36264,1339,CLEBURNE,2564632259,ME,CI,SO,CI1,N,10/01/2008,09/30/2009,3511,1,0,0,0,0.55,0.55,28500,3196,0,33343,,,,3089,0,3126,34524,0,2855,0,2855,2855,16239,0,318,621,81,25,1262,11561,623,3459,13392,5256,36,21,1,68,8,2754,2010,05,1,00,00,00,-85.587878,33.64374,01,029
AL,AL0019,101-009,OXFORD PUBLIC LIBRARY,110 EAST 6TH STREET,OXFORD,36203,1617,CALHOUN,2568311750,ME,CI,SO,CI1,N,10/01/2008,09/30/2009,20329,1,0,0,1,2,7,384075,16952,0,401027,185000,0,185000,29836,0,41080,316080,0,0,0,0,0,44992,90,2446,1894,61,38,2236,83684,1602,14788,125247,70245,8,59,63,2829,20,12543,2010,05,1,00,00,00,-85.83545,33.60969,01,015
AL,AL0020,999-070,TALLADEGA - ARMSTRONG-OSBORNE PUBLIC LIBRARY,202 SOUTH STREET EAST,TALLADEGA,35160,2471,TALLADEGA,2563624211,NO,CI,SO,CI1,N,10/01/2008,09/30/2009,17115,1,0,0,1,3,10,357748,18826,1800,402814,234000,38000,272000,38761,1324,52156,402388,0,0,0,0,0,149325,0,1746,254,79,144,2392,41774,74884,10220,67056,14954,148,54,857,15776,27,4714,2010,05,1,00,06,00,-86.09972,33.43313,01,121
AL,AL0022,999-033,ABBEVILLE MEMORIAL LIBRARY,301 KIRKLAND STREET,ABBEVILLE,36310,2419,HENRY,3345852818,NO,CI,SO,CI1,N,10/01/2008,09/30/2009,7778,1,0,0,0,1,3,90000,8319,1500,112077,48401,16744,65145,17427,0,45708,124894,0,0,0,0,26221,30373,0,619,449,79,0,2193,19035,1120,4837,21128,6774,1,1,2,75,13,8320,2010,05,1,00,00,00,-85.250486,31.56676,01,067
AL,AL0023,999-075,ARITON - DOT LANEY MEMORIAL LIBRARY,30 WEST MAIN STREET,ARITON,36311,0026,DALE,3347622463,ME,CI,SO,CI1,N,10/01/2008,09/30/2009,746,1,0,0,0,0.4,0.4,11540,746,4783,24910,,,,4237,1060,5297,24910,0,0,0,0,0,11522,0,27,349,79,0,832,2064,30,428,942,293,0,9,4,400,4,675,2010,05,2,00,00,15,-85.719461,31.60018,01,045
AL,AL0024,999-035,HEADLAND - BLANCHE R. SOLOMON MEMORIAL LIBRARY,17 PARK STREET,HEADLAND,36345,1747,HENRY,3346932706,NO,CI,SO,CI1,N,10/01/2008,09/30/2009,8843,1,0,0,0,1,3,98113,7401,0,110452,48536,10721,59257,8816,2388,18516,98416,0,0,0,0,0,71200,0,1768,243,61,29,2236,23265,7000,7462,22241,9876,0,0,1,551,5,5200,2010,05,1,00,00,00,-85.342198,31.35231,01,067
AL,AL0025,999-061,BRUNDIDGE - TUPPER LIGHTFOOT MEMORIAL LIBRARY,164 SOUTH MAIN STREET,BRUNDIDGE,36010,1809,PIKE,3347352145,NO,CI,SO,CI1,N,10/01/2008,09/30/2009,2299,1,0,0,1,4,4,174356,10291,15600,209051,67824,21036,88860,28000,0,28347,142921,0,0,0,0,65068,15187,0,331,692,150,1,2236,10299,1000,1438,16559,3584,0,6,72,1061,10,3022,2010,05,1,00,00,00,-85.815509,31.71897,01,109
AL,AL0026,999-079,OZARK - DALE COUNTY PUBLIC LIBRARY,416 JAMES STREET,OZARK,36360,2090,DALE,3347745480,ME,MJ,SO,CO2,N,10/01/2008,09/30/2009,36738,1,0,0,0,2,7,143400,43400,5688,274518,142609,11813,154422,23194,0,37992,250534,0,0,0,0,0,60892,0,1238,2406,61,0,2153,116034,11726,11638,78095,26186,153,117,323,3533,32,17198,2010,05,1,00,00,00,-85.632774,31.45219,01,045
AL,AL0029,517-001,CLIO - ELTON B. STEPHENS LIBRARY,17 SCHOOL STREET,CLIO,36017,9298,BARBOUR,3343972911,ME,CI,SO,CI1,N,10/01/2008,09/30/2009,4880,1,0,0,0,1,1,7228,5368,0,13564,,,,814,0,1027,9716,0,0,0,0,0,9080,0,750,621,81,0,1040,4107,622,483,11597,3985,0,5,6,36,8,1920,2010,05,1,00,00,00,-85.612081,31.7087,01,005
AL,AL0030,517-003,LOUISVILLE PUBLIC LIBRARY,1951 MAIN STREET,LOUISVILLE,36048,0125,BARBOUR,3342665210,ME,CI,SO,CI1,N,10/01/2008,09/30/2009,3234,1,0,0,0,0.6,0.6,5000,3241,1466,9707,,,,792,1466,2258,8861,0,0,0,0,0,5724,0,0,15,61,0,750,300,22,255,314,69,0,4,0,0,2,201,2010,05,1,00,00,15,-85.555289,31.78378,01,005
AL,AL0031,999-077,MIDLAND CITY - MARY BERRY BROWN MEMORIAL LIBRARY,1318 HINTON WATERS AVENUE,MIDLAND CITY,36350,0713,DALE,3349839999,ME,CI,SO,CI1,N,10/01/2008,09/30/2009,1847,1,0,0,0,2,4,29221,1849,3390,37691,8893,0,8893,2901,2302,8466,28789,0,0,0,0,0,7022,0,64,257,0,0,1352,2480,55,870,1544,348,0,0,3,49,6,1762,2010,05,1,00,00,15,-85.489966,31.32686,01,045
AL,AL0032,999-078,NEWTON PUBLIC LIBRARY,209 OATES DRIVE,NEWTON,36352,9588,DALE,3342993316,ME,CI,SO,CI1,N,10/01/2008,09/30/2009,2281,1,0,0,0,1,1,20575,2283,3500,26728,,,,2090,0,2315,17312,0,0,0,0,0,12659,0,247,35,61,0,1560,4280,91,601,7656,1836,0,0,0,0,4,415,2010,05,2,00,00,00,-85.596856,31.33194,01,045
AL,AL0033,517-004,CLAYTON - TOWN AND COUNTY PUBLIC LIBRARY,45 NORTH MIDWAY STREET,CLAYTON,36016,0518,BARBOUR,3347753506,ME,CI,SO,CI2,N,10/01/2008,09/30/2009,4040,1,0,0,0,1,2,12403,4044,1393,22802,,,,2633,0,4044,21425,0,0,0,0,1393,15864,0,54,119,61,19,1196,3678,30,2023,2027,352,0,3,1,46,10,2177,2010,05,1,00,00,00,-85.458753,31.88456,01,005
AL,AL0034,999-060,TROY PUBLIC LIBRARY,300 NORTH THREE NOTCH STREET,TROY,36081,2022,PIKE,3345661314,NO,CI,SO,CO2,N,10/01/2008,09/30/2009,27626,1,0,0,1,7,12.07,494402,23905,0,541637,262956,86000,348956,52161,0,65006,488544,15000,0,0,15000,15000,78956,0,3722,2106,74,139,2412,83191,31719,16784,183503,76191,9,538,555,4714,16,7851,2010,05,1,00,00,00,-85.97222,31.80972,01,109
AL,AL0035,999-058,UNION SPRINGS PUBLIC LIBRARY,103 NORTH PRAIRIE STREET,UNION SPRINGS,36089,1616,BULLOCK,3347382760,NO,MJ,SO,CO1,N,10/01/2008,09/30/2009,10781,1,0,0,0,1.75,2.75,38800,10792,0,55013,34196,3348,37544,5048,0,5048,59378,273563,0,0,273563,0,11903,0,230,59,81,9,1848,11835,1225,3748,2771,210,0,3,11,137,8,9274,2010,05,1,00,00,00,-85.716105,32.14064,01,011
AL,AL0037,103-001,ANDALUSIA PUBLIC LIBRARY,212 SOUTH THREE NOTCH STREET,ANDALUSIA,36420,3710,COVINGTON,3342226612,ME,CI,SO,CI1,N,10/01/2008,09/30/2009,17745,1,0,0,1,2,8,223522,24005,0,268792,153981,40565,194546,13527,0,15745,268792,0,0,0,0,0,47030,0,1401,945,81,0,2499,33258,29872,18163,43112,14813,140,27,55,2012,22,17607,2010,05,1,00,00,00,-86.482884,31.30693,01,039
AL,AL0038,103-002,BRANTLEY PUBLIC LIBRARY,10 MLK DRIVE,BRANTLEY,36009,0045,CRENSHAW,3345278624,NO,CI,SO,CI1,N,10/01/2008,09/30/2009,3550,1,0,0,0,2,2,6500,859,0,23958,,,,2600,0,2600,22253,0,0,0,0,0,8434,0,0,0,0,32,1100,800,60,989,8041,2719,0,0,2,30,2,650,2010,05,1,00,00,15,-86.35482,31.59088,01,041
AL,AL0039,999-034,ELBA PUBLIC LIBRARY,406 SIMMONS STREET,ELBA,36323,1759,COFFEE,3348976921,ME,CI,SO,CI1,N,10/01/2008,09/30/2009,9603,1,0,0,1,1,2,78244,9613,5338,97826,,,,14584,0,21047,98533,0,0,0,4005,4005,14950,0,387,490,61,27,2074,18422,1248,1882,18294,4061,0,10,35,88,10,5606,2010,05,1,00,00,00,-86.065581,31.4145,01,031
AL,AL0040,103-004,GENEVA - EMMA KNOX KENAN PUBLIC LIBRARY,312 SOUTH COMMERCE STREET,GENEVA,36340,M,GENEVA,3346842459,NO,CI,SO,CI1,N,10/01/2008,09/30/2009,8114,1,0,0,0,1,2.5,75276,8122,2547,89245,44024,11912,55936,8122,0,8507,94061,0,0,0,0,0,16623,0,258,400,61,25,2193,12300,4100,4219,11441,4069,41,4,2,78,5,5904,2010,05,1,00,00,00,-85.865083,31.03622,01,061
AL,AL0041,999-041,ENTERPRISE PUBLIC LIBRARY,101 EAST GRUBBS STREET,ENTERPRISE,36330,2531,COFFEE,3343472636,ME,CI,SO,CO2,N,10/01/2008,09/30/2009,37190,1,0,0,0,3.37,6.09,154131,37217,1500,237166,132675,7326,140001,22040,3285,28370,249634,0,0,0,5500,23055,47889,0,1963,1902,61,37,2500,105241,6375,17388,113282,40781,0,104,350,4476,13,17626,2010,05,1,00,00,00,-85.853377,31.31367,01,031
AL,AL0042,103-006,FLORALA PUBLIC LIBRARY,1214 FOURTH STREET,FLORALA,36442,1814,COVINGTON,3348583525,ME,CI,SO,CI1,N,10/01/2008,09/30/2009,6297,1,0,0,0,1,3,44291,6303,0,58233,30647,3828,34475,6303,0,7148,57276,0,0,0,0,0,15224,0,395,1419,61,31,1960,17697,476,2267,17276,6302,27,1,78,455,8,4821,2010,05,1,00,00,00,-86.327219,31.00565,01,039
AL,AL0043,103-007,HARTFORD / MCGREGOR-MCKINNEY PUBLIC LIBRARY,101 EAST FULTON STREET,HARTFORD,36344,1626,GENEVA,3345882384,NO,CI,SO,CI1,N,10/01/2008,09/30/2009,6117,1,0,0,0,1,2,73038,6123,6790,89646,,,,22545,0,26879,89063,0,0,1455,1455,1455,20527,105,994,624,61,35,2248,17661,450,2452,34322,11952,0,51,33,627,6,5623,2010,05,1,00,00,15,-85.696666,31.09826,01,061
AL,AL0044,103-008,LUVERNE PUBLIC LIBRARY,148 EAST THIRD AVENUE,LUVERNE,36049,1117,CRENSHAW,3343355326,ME,CI,SO,CO2,N,10/01/2008,09/30/2009,10255,1,0,0,1,2,2.4,103997,10265,1490,124535,76733,13811,90544,9301,0,12299,125351,0,0,0,0,0,13409,0,1068,670,74,22,1872,25430,969,6113,25917,7438,42,79,26,949,11,7498,2010,05,1,00,00,00,-86.261602,31.71632,01,041
AL,AL0045,103-009,OPP PUBLIC LIBRARY,1604 NORTH MAIN STREET,OPP,36467,0717,COVINGTON,3344936423,ME,CI,SO,CI1,N,10/01/2008,09/30/2009,12965,1,0,0,0,2,3.3,106991,12978,0,132041,56638,13658,70296,17720,2500,24899,127538,3600,0,0,3600,6275,26322,0,930,943,61,46,2288,24432,2947,2833,32172,8290,239,127,111,3106,9,3605,2010,05,1,00,00,00,-86.25497,31.30712,01,039
AL,AL0046,103-010,SAMSON PUBLIC LIBRARY,200 NORTH JOHNSON STREET,SAMSON,36477,2006,GENEVA,3348987806,NO,CI,SO,CI1,N,10/01/2008,09/30/2009,5727,1,0,0,0,0.4,0.5,18810,5733,0,25456,,,,5733,0,5733,28018,240,1393,0,1633,0,7243,0,155,134,81,20,1454,6344,140,527,7545,2870,0,2,5,148,5,2420,2010,05,1,00,00,00,-86.046002,31.11811,01,061
AL,AL0047,103-011,SLOCOMB PUBLIC LIBRARY,134 SOUTH DALTON AVENUE,SLOCOMB,36375,1026,GENEVA,3348869009,NO,CI,SO,CI1,N,10/01/2008,09/30/2009,5749,1,0,0,0,1,1,5798,2774,0,8572,,,,3050,0,3050,6300,0,50000,0,50000,0,5421,0,0,0,2,8,1040,1500,120,2333,5500,3500,0,1,2,60,4,500,2010,05,2,00,00,00,-85.593681,31.10703,01,061
AL,AL0048,104-000,HORSESHOE BEND REGIONAL LIBRARY,207 NORTH WEST STREET,DADEVILLE,36853,1355,TALLAPOOSA,2568259232,HQ,MJ,MA,MC2,N,10/01/2008,09/30/2009,130208,1,0,1,1.8,1.8,4.4,56478,176543,1500,236966,133458,28536,161994,16403,0,18063,240046,0,0,0,0,0,96768,0,1236,2480,61,21,3182,505763,118537,5205,35152,13074,120,34,209,3217,5,1250,2010,05,2,00,00,00,-85.765401,32.83339,01,123
AL,AL0049,104-001,ALEXANDER CITY - ADELIA MCCONNELL RUSSELL LIBRARY,318 CHURCH STREET,ALEXANDER CITY,35010,5010,TALLAPOOSA,2563296796,ME,CI,MA,CI1,N,10/01/2008,09/30/2009,14950,1,1,0,0,1,10.7,472249,7476,1500,502303,279492,113697,393189,28968,2545,40825,503146,17144,0,0,17144,19833,34232,0,1980,3853,63,89,5667,68205,25823,9058,62315,26520,75,96,116,6024,29,18236,2010,05,1,00,00,00,-85.95393,32.94154,01,123
AL,AL0050,104-002,DADEVILLE PUBLIC LIBRARY,205 NORTH WEST STREET,DADEVILLE,36853,1355,TALLAPOOSA,2568257820,ME,CI,SO,CO2,N,10/01/2008,09/30/2009,3218,1,0,0,0,0.8,1.68,52266,2730,1455,60051,,,,5866,0,7366,62232,0,0,0,0,0,9323,0,1319,388,61,9,1748,36960,2595,3145,43677,3697,4,243,82,586,12,5245,2010,05,2,00,00,00,-85.765401,32.83339,01,123
AL,AL0051,104-003,GOODWATER PUBLIC LIBRARY,36 WEOGUFKA STREET,GOODWATER,35072,0140,COOSA,2568395741,ME,CI,SO,CI1,N,10/01/2008,09/30/2009,1528,1,0,0,0,0.6,1,39746,2789,2882,49551,,,,4667,0,5305,49216,0,0,0,0,0,14569,0,383,1223,61,36,1968,7226,1325,2698,8422,1403,13,4,11,125,6,3524,2010,05,1,00,00,00,-86.05253,33.06383,01,037
AL,AL0052,104-004,AUBURN PUBLIC LIBRARY,749 EAST THACH AVENUE,AUBURN,36830,5545,LEE,3345013190,ME,CI,SO,CI1,N,10/01/2008,09/30/2009,54348,1,0,0,6.5,9,22.5,1499870,27079,9700,1536649,911526,221450,1132976,95176,0,114800,1536649,0,0,0,0,0,64965,0,2741,2315,64,153,3418,176547,14030,36924,238809,104347,386,228,289,9571,79,123046,2010,05,2,00,00,00,-85.466427,32.60441,01,081
AL,AL0053,104-005,OPELIKA - LEWIS COOPER JR. MEMORIAL LIBRARY,200 SOUTH 6TH STREET,OPELIKA,36801,0125,LEE,3347055380,ME,CI,SO,CI1,N,10/01/2008,09/30/2009,25836,1,0,0,2,4,12.5,658900,28419,0,710319,353460,100029,453489,68500,2000,97604,675796,0,0,0,0,6059,64732,0,2433,3278,83,82,3255,105319,5998,4659,143288,50940,132,630,737,8949,19,15012,2010,05,1,00,00,00,-85.375903,32.64908,01,081
AL,AL0054,104-006,MILLBROOK PUBLIC LIBRARY,3650 GRANDVIEW ROAD,MILLBROOK,36054,0525,ELMORE,3342856688,ME,CI,SO,CI1,N,10/01/2008,09/30/2009,16462,1,0,0,0,3,3,121742,8219,1500,142091,77138,27589,104727,11783,0,16928,143127,0,0,0,0,0,30712,0,1551,1925,61,36,2801,77965,9397,12857,71697,33557,25,37,77,3113,12,22310,2010,05,2,00,00,00,-86.361986,32.47677,01,051
AL,AL0055,104-007,ROCKFORD PUBLIC LIBRARY,110 MAIN STREET,ROCKFORD,35136,0128,COOSA,2563774911,ME,CI,SO,CI1,N,10/01/2008,09/30/2009,396,1,0,0,0,1,1,41818,2680,1452,49076,,,,2445,0,2859,46995,0,0,0,0,0,5342,0,73,194,61,16,2550,1956,27,578,1530,557,2,5,7,61,2,1207,2010,05,1,00,00,00,-86.225611,32.87139,01,037
AL,AL0056,104-008,TALLASSEE COMMUNITY PUBLIC LIBRARY,99 FREEMAN AVENUE,TALLASSEE,36078,M,TALLAPOOSA,3342832732,ME,CI,SO,CI1,N,10/01/2008,09/30/2009,5121,1,0,0,0,1,1.5,62500,2737,1500,77430,,,,9237,1509,14246,74580,0,0,0,0,0,25179,0,1606,1126,61,7,1805,27848,4130,8979,39244,8116,0,5,40,2338,10,6214,2010,05,2,00,06,00,-85.879175,32.54029,01,123
AL,AL0057,104-009,WETUMPKA PUBLIC LIBRARY,212 SOUTH MAIN STREET,WETUMPKA,36092,0249,ELMORE,3345671308,ME,CI,SO,CI1,N,10/01/2008,09/30/2009,7585,1,0,0,1.5,1.5,5,243043,3796,2536,268511,123499,43776,167275,19934,0,30701,257780,0,0,0,0,0,24998,0,1341,1115,61,49,2862,27813,3217,14918,86684,30340,39,163,172,2929,17,21178,2010,05,1,00,00,00,-86.206127,32.5334,01,051
AL,AL0059,516-001,FLORENCE - LAUDERDALE PUBLIC LIBRARY,350 NORTH WOOD AVENUE,FLORENCE,35630,4706,LAUDERDALE,2567646564,ME,MJ,SO,CO2,N,10/01/2008,09/30/2009,85396,1,0,0,3,12,19,698450,68191,14614,945603,432772,122354,555126,62166,3840,111685,986674,0,0,0,0,0,85545,37405,4190,3879,63,125,2754,256381,95480,36356,283999,105157,0,195,433,15762,26,44449,2010,05,1,00,14,00,-87.674645,34.80356,01,077
AL,AL0060,999-039,TUSCUMBIA - HELEN KELLER PUBLIC LIBRARY,511 NORTH MAIN STREET,TUSCUMBIA,35674,2059,COLBERT,2563837065,NO,MJ,SO,CI2,N,10/01/2008,09/30/2009,12705,1,0,0,0,3,4,117544,13975,0,140961,60606,13814,74420,23145,0,27899,140961,0,0,0,14000,14000,25948,30828,1340,1916,61,39,1992,10125,4725,8539,37017,9139,27,14,11,761,7,5842,2010,05,1,00,00,00,-87.7035,34.73655,01,033
AL,AL0061,999-042,LEIGHTON PUBLIC LIBRARY,8740 MAIN STREET,LEIGHTON,35646,0484,COLBERT,2564465380,NO,MJ,SO,CI2,N,10/01/2008,09/30/2009,5295,1,0,0,0,1,1.05,5000,5300,0,14807,,,,2650,0,2960,14807,0,0,0,0,0,9157,0,116,403,61,18,1004,3902,2000,812,3233,1810,0,0,8,445,3,2000,2010,05,1,00,00,00,-87.528964,34.70015,01,033
AL,AL0062,999-050,MUSCLE SHOALS PUBLIC LIBRARY,1918 EAST AVALON AVENUE,MUSCLE SHOALS,35661,2402,COLBERT,2563869212,NO,MJ,SO,CI2,N,10/01/2008,09/30/2009,17310,1,0,0,0,1,10.7,512379,17327,3811,571304,256528,76197,332725,60000,0,72062,571304,0,0,0,0,0,50581,43194,1851,5996,61,67,2193,84534,21487,14401,204343,63781,104,9,62,2520,32,22132,2010,05,1,00,00,00,-87.64515,34.74444,01,033
AL,AL0063,516-004,ROGERSVILLE PUBLIC LIBRARY,74 BANK STREET,ROGERSVILLE,35652,0191,LAUDERDALE,2562470151,ME,CI,SO,CO2,N,10/01/2008,09/30/2009,1196,1,0,0,1,1,2.5,72720,10038,5150,95870,47198,5313,52511,12822,0,18172,95037,1400,0,1270,2670,2670,34065,0,771,761,63,32,2080,25689,2088,5138,41980,14698,0,0,64,1040,15,6067,2010,05,1,00,00,00,-87.29206,34.82425,01,077
AL,AL0064,999-066,SHEFFIELD PUBLIC LIBRARY,316 NORTH MONTGOMERY AVENUE,SHEFFIELD,35660,2709,COLBERT,2563865633,NO,CI,SO,CO2,N,10/01/2008,09/30/2009,13639,1,0,0,0,4,5,211595,13652,6790,271103,84562,62818,147380,52358,0,70187,253219,3563,0,0,34962,3563,51844,27500,2175,3087,73,52,2000,55993,4743,9543,71333,12710,24,20,16,1276,37,8399,2010,05,1,00,00,00,-87.698531,34.76144,01,033
AL,AL0065,106-000,NORTHWEST REGIONAL LIBRARY,185 ASHWOOD DRIVE,WINFIELD,35594,1527,MARION,2054872330,HQ,MJ,SO,MC1,N,10/01/2008,09/30/2009,34594,1,0,0,0,1,3,32583,56540,0,100683,50410,14917,65327,8977,0,8977,103419,0,0,0,0,0,80016,0,118,360,81,0,2064,131833,27,2928,8697,476,19,51,0,0,5,5525,2010,05,2,00,00,00,-87.815049,33.93085,01,093
AL,AL0066,106-001,HAMILTON - CLYDE NIX PUBLIC LIBRARY,350 BEXAR AVENUE WEST,HAMILTON,35570,1944,MARION,2059214290,ME,CI,SO,CI1,N,10/01/2008,09/30/2009,6381,1,0,0,0,1,1.5,56593,0,3880,61443,,,,4080,0,5050,61443,0,0,0,0,0,16828,0,569,768,81,0,2080,13673,952,699,18560,4733,13,12,9,230,6,3451,2010,05,1,00,00,00,-87.992322,34.14318,01,093
AL,AL0067,106-002,KENNEDY PUBLIC LIBRARY,17885 HIGHWAY 96,KENNEDY,35574,0070,LAMAR,2055963670,ME,CI,SO,CI1,N,10/01/2008,09/30/2009,497,1,0,0,0,0.8,0.8,13280,0,0,13280,,,,1500,0,1500,13280,0,0,0,0,0,4221,0,14,10,81,0,1664,440,42,340,364,129,24,1,0,0,2,122,2010,05,1,00,00,15,-87.976044,33.58605,01,075
AL,AL0068,106-003,GUIN - MCHS COMMUNITY LIBRARY,8115 U.S. HIGHWAY 43,GUIN,35563,0549,MARION,2054682544,ME,MJ,SO,CI1,N,10/01/2008,09/30/2009,2198,1,0,0,0.75,1.75,1.75,29121,0,6790,40937,,,,6890,0,8688,40937,0,0,0,0,0,19484,0,484,510,81,0,2024,14951,451,1874,14684,6557,0,15,2,146,9,4843,2010,05,1,00,06,00,-87.89401,33.967,01,093
AL,AL0069,106-004,MILLPORT PUBLIC LIBRARY,920 BLACK STREET,MILLPORT,35576,0159,LAMAR,2056624286,ME,CI,SO,CI1,N,10/01/2008,09/30/2009,1023,1,0,0,0,0.7,0.7,23335,0,1455,25154,,,,2659,0,3023,25154,0,0,0,0,0,9911,0,98,257,81,0,1456,4016,93,1124,1726,484,2,30,1,108,4,717,2010,05,1,00,00,00,-88.089351,33.56156,01,075
AL,AL0070,106-005,RUSSELLVILLE PUBLIC LIBRARY,110 EAST LAWRENCE STREET,RUSSELLVILLE,35653,2349,FRANKLIN,2563321535,ME,CI,SO,CI1,N,10/01/2008,09/30/2009,17982,1,0,0,0,1,3,48300,18000,4932,75353,27357,6335,33692,14241,932,18028,57845,0,0,0,0,932,20016,0,438,850,81,0,1536,7812,1700,7671,16448,5232,0,6,24,356,2,1560,2010,05,2,00,00,00,-87.730263,34.50473,01,059
AL,AL0071,106-006,SULLIGENT PUBLIC LIBRARY,514 ELM STREET,SULLIGENT,35586,0215,LAMAR,2056988631,ME,CI,SO,CI1,N,10/01/2008,09/30/2009,1980,1,0,0,0,1,1.25,48054,0,3880,52904,,,,5253,0,6223,52904,0,0,0,0,0,12973,0,102,136,81,0,2080,9473,1533,2382,8726,3710,19,9,16,342,5,2477,2010,05,1,00,00,00,-88.13174,33.90033,01,075
AL,AL0072,106-007,VERNON - MARY WALLACE COBB MEMORIAL LIBRARY,110 FIRST AVENUE WEST,VERNON,35592,0357,LAMAR,2056956123,ME,CI,SO,CI1,N,10/01/2008,09/30/2009,1913,1,0,0,0,1,1.5,64008,0,485,70312,,,,4841,0,4962,70312,0,0,0,0,0,12967,0,253,500,81,0,2210,13635,2594,2865,11037,2688,6,30,109,1537,9,2477,2010,05,1,00,00,00,-88.109729,33.7091,01,075
AL,AL0073,106-008,RED BAY - WEATHERFORD PUBLIC LIBRARY,307 4TH AVENUE SOUTH,RED BAY,35582,0870,FRANKLIN,2563569255,ME,CI,SO,CI1,N,10/01/2008,09/30/2009,3256,1,0,0,0,0.63,0.63,41155,0,1455,42974,,,,4555,0,4919,42974,0,0,0,0,0,11569,0,66,97,81,0,1300,9835,42,2173,8925,2314,14,16,6,440,6,4165,2010,05,1,00,00,00,-88.149203,34.41045,01,059
AL,AL0074,106-009,WINFIELD PUBLIC LIBRARY,185 ASHWOOD DRIVE,WINFIELD,35594,0688,MARION,2054872484,ME,CI,SO,CI1,N,10/01/2008,09/30/2009,4642,1,0,0,0,1,1.5,55839,0,4365,75795,,,,11365,5000,17456,75795,0,0,0,0,0,24867,81,529,1995,74,0,2340,25515,4152,3459,33079,5785,97,263,32,934,9,7457,2010,05,1,00,00,00,-87.815049,33.93085,01,093
AL,AL0076,107-001,ATHENS - LIMESTONE PUBLIC LIBRARY,405 EAST SOUTH STREET,ATHENS,35611,2664,LIMESTONE,2562321233,NO,CO,SO,CO1,N,10/01/2008,09/30/2009,73898,1,0,0,3,6,10.5,216246,73973,11205,428981,299004,60462,359466,31021,6200,54599,515215,0,0,0,0,0,61435,34847,4170,1869,61,50,2341,82683,27223,10944,137705,62182,17,69,250,4334,16,21651,2010,05,1,00,14,00,-86.963939,34.7997,01,083
AL,AL0077,107-002,DECATUR PUBLIC LIBRARY,504 CHERRY STREET NE,DECATUR,35601,1801,MORGAN,2563532993,ME,CI,SO,CI1,N,10/01/2008,09/30/2009,86490,1,0,0,2,18,19.25,465388,86576,16102,927435,476877,141616,618493,75918,400,92135,911057,0,0,0,0,0,102297,27518,3920,5543,63,126,3328,252099,23318,32118,233080,80847,450,105,150,4974,51,65157,2010,05,1,00,00,15,-86.981692,34.6071,01,103
AL,AL0078,107-003,HARTSELLE - WILLIAM BRADFORD HUIE PUBLIC LIBRARY,152 SPARKMAN STREET NW,HARTSELLE,35640,2402,MORGAN,2567739880,ME,CI,SO,CI1,N,10/01/2008,09/30/2009,21439,1,0,0,0,1,3,76328,21460,0,97788,53279,14687,67966,9947,0,10304,97788,0,0,0,0,0,31194,0,981,322,62,12,2184,35348,1400,7775,35348,12252,2,2,48,878,8,10367,2010,05,1,00,00,00,-86.934995,34.44423,01,103
AL,AL0079,107-004,LAWRENCE COUNTY PUBLIC LIBRARY,401 COLLEGE STREET,MOULTON,35650,1483,LAWRENCE,2569740883,ME,CO,SO,CO1,N,10/01/2008,09/30/2009,32669,1,0,0,1.78,1.78,4.96,98000,32701,3576,157737,100000,8000,108000,13623,0,19123,151737,0,0,0,0,0,39499,0,1135,1957,80,10,2092,41107,3574,8857,50480,12015,5,0,83,6950,18,22151,2010,05,1,00,00,00,-87.29446,34.47587,01,079
AL,AL0080,500-000,BALDWIN COUNTY LIBRARY COOPERATIVE,22251 PALMER STREET,ROBERTSDALE,36567,0399,BALDWIN,2519704010,HQ,CO,MO,CO2,N,10/01/2008,09/30/2009,91465,1,0,1,0,2,6,91547,91547,4850,210548,120494,28628,149122,7205,0,13601,207650,0,0,0,0,0,19312,4,1237,955,61,7,6032,45793,3196,2970,44470,15646,199,64,2,143,6,11090,2010,05,2,00,00,00,-87.716869,30.54952,01,003
AL,AL0081,500-001,DAPHNE PUBLIC LIBRARY,2607 U.S. HIGHWAY 98,DAPHNE,36526,1225,BALDWIN,2516212818,ME,CI,SO,CI1,N,10/01/2008,09/30/2009,18956,1,0,0,3,5,13.29,675756,18974,18220,724311,258455,158433,416888,53652,480,79357,594685,0,0,0,0,0,51432,0,5273,7532,87,86,2815,220042,8654,19054,295002,114683,180,38,350,9970,8,15704,2010,05,1,00,00,00,-87.873901,30.63231,01,003
AL,AL0082,500-002,FAIRHOPE PUBLIC LIBRARY,501 FAIRHOPE AVENUE,FAIRHOPE,36532,2490,BALDWIN,2519287483,ME,CI,SO,CI1,N,10/01/2008,09/30/2009,16618,1,0,0,1,5,12.88,743746,16635,20803,869137,429756,54337,484093,76136,7565,111388,861352,0,0,0,78426,83434,61007,0,5493,3621,63,150,2583,184426,36046,16951,220267,60947,232,102,828,12589,74,49183,2010,05,1,00,00,15,-87.901851,30.52306,01,003
AL,AL0083,999-072,FOLEY PUBLIC LIBRARY,319 EAST LAUREL AVENUE,FOLEY,36535,2680,BALDWIN,2519437665,NO,CI,SO,CI1,N,10/01/2008,09/30/2009,13383,1,0,0,1,3,12.92,793691,14300,14500,882375,422609,120000,542609,58425,3784,94480,848021,0,0,0,5100,0,54026,0,4301,4765,85,131,2819,256667,42886,15954,258231,66126,83,72,159,6542,52,39410,2010,05,1,00,00,00,-87.679613,30.40637,01,003
AL,AL0084,500-004,BAY MINETTE PUBLIC LIBRARY,205 WEST SECOND STREET,BAY MINETTE,36507,4838,BALDWIN,2515801648,ME,CI,SO,CI1,N,10/01/2008,09/30/2009,7726,1,0,0,1,5,7,303492,8499,0,318932,161866,43676,205542,33271,1700,42763,284005,0,0,0,0,0,33818,0,2244,3193,83,54,2756,75400,58500,9695,88441,27811,295,166,212,5824,5,19240,2010,05,2,00,00,00,-87.776117,30.88258,01,003
AL,AL0085,500-005,LOXLEY PUBLIC LIBRARY,1001 EAST LOXLEY AVENUE,LOXLEYABAMA,36551,0527,BALDWIN,2519645695,ME,CI,SO,CI1,N,10/01/2008,09/30/2009,1621,1,0,0,0,0.7,1.7,30565,1732,0,34297,,,,2500,0,6000,26554,0,0,0,0,0,9100,0,102,197,78,10,1350,7500,5000,890,11005,3942,11,16,4,135,8,1250,2010,05,1,00,00,15,-87.752881,30.61993,01,003
AL,AL0087,999-071,ROBERTSDALE PUBLIC LIBRARY,18301 PENNSYLVANIA STREET,ROBERTSDALE,36567,3072,BALDWIN,2519478960,NO,CI,SO,CI1,N,10/01/2008,09/30/2009,4868,1,0,0,0,1,5,259783,4873,0,264656,125540,36312,161852,40823,0,47336,224606,0,0,0,0,0,25189,0,3190,1967,79,86,2624,49573,7223,6404,72862,16800,56,56,62,4142,13,16723,2010,05,2,00,00,00,-87.71341,30.55299,01,003
AL,AL0088,500-008,GULF SHORES - THOMAS B. NORTON PUBLIC LIBRARY,221 WEST 19TH AVENUE,GULF SHORES,36542,3055,BALDWIN,2519681176,ME,CI,SO,CI1,N,10/01/2008,09/30/2009,10207,1,0,0,2,7,9,405530,10217,1468,429740,259490,64040,323530,43019,3374,57308,415747,0,0,0,0,0,45959,99,4472,3950,67,72,2548,218260,56092,10974,89609,14806,222,96,140,2367,23,25539,2010,05,1,00,00,00,-87.69243,30.27247,01,003
AL,AL0090,501-001,ADAMSVILLE PUBLIC LIBRARY,4825 MAIN STREET,ADAMSVILLE,35005,0241,JEFFERSON,2056743399,ME,CI,SO,CI1,N,10/01/2008,09/30/2009,11892,1,0,0,0,1,3,84175,3335,1344,103656,44007,9345,53352,9975,0,16735,103572,0,0,0,0,0,14683,235,357,779,85,26,2340,14255,2852,3203,19650,8240,1646,6404,44,951,8,6608,2010,05,1,00,00,00,-86.953238,33.60013,01,073
AL,AL0091,501-002,BESSEMER PUBLIC LIBRARY,400 19TH STREET N,BESSEMER,35020,5305,JEFFERSON,2054287882,ME,CI,SO,CI1,N,10/01/2008,09/30/2009,35790,1,0,0,0,3,8.5,590004,20080,0,626330,266707,97165,363872,15837,0,15837,626330,0,0,0,0,0,69397,0,4193,3625,65,107,2850,112091,68108,18084,99050,27215,252,102,129,6979,67,113022,2010,05,1,00,00,00,-86.954666,33.4032,01,073
AL,AL0092,501-003,MOUNTAIN BROOK - EMMET O'NEAL LIBRARY,50 OAK STREET,MOUNTAIN BROOK,35213,4295,JEFFERSON,2058790459,ME,CI,SO,CI1,N,10/01/2008,09/30/2009,28153,1,0,0,5,8,29,2165340,14728,3386,2245234,1264930,307792,1572722,204513,11715,330334,2264474,81645,0,0,81645,81645,122618,0,6042,6296,67,175,3250,276550,193104,15943,368763,180765,15222,10940,900,35262,66,3293,2010,05,1,00,00,00,-86.755554,33.50099,01,073
AL,AL0093,501-004,FAIRFIELD - WALTER J. HANNA MEMORIAL LIBRARY,4615 GARY AVENUE,FAIRFIELD,35064,1341,JEFFERSON,2057836007,ME,CI,SO,CI1,N,10/01/2008,09/30/2009,18543,1,0,0,1,1,7,195999,7751,1093,213072,115890,13940,129830,25284,1093,26963,191122,0,0,0,0,0,21196,0,643,1407,78,28,4992,21387,2362,5279,9738,2846,1639,3074,51,984,15,2556,2010,05,1,00,00,00,-86.915247,33.49128,01,073
AL,AL0094,501-005,FULTONDALE PUBLIC LIBRARY,1015 OLD WALKERS CHAPEL ROAD,FULTONDALE,35068,0549,JEFFERSON,2058496335,ME,CI,SO,CI1,N,10/01/2008,09/30/2009,14040,1,0,0,0,1,7,336748,4680,0,347754,224138,43829,267967,9988,0,26006,341862,0,0,0,0,0,29883,0,990,2753,61,22,2510,10984,9657,3506,23792,7301,1777,3322,8,482,12,7249,2010,05,1,00,00,00,-86.798343,33.60846,01,073
AL,AL0095,501-006,GARDENDALE - MARTHA MOORE PUBLIC LIBRARY,995 MT. OLIVE ROAD,GARDENDALE,35071,1165,JEFFERSON,2056316639,ME,CI,SO,CI1,N,10/01/2008,09/30/2009,20552,1,0,0,0.5,7.5,9.5,593417,9402,0,639785,339575,91267,430842,37377,340,60881,642361,0,0,0,17467,5931,59991,0,2805,3436,65,54,2354,117192,19549,11212,170783,57484,7251,17812,230,6546,24,35686,2010,05,1,00,00,00,-86.818643,33.6506,01,073
AL,AL0096,501-007,GRAYSVILLE PUBLIC LIBRARY,315 SOUTH MAIN STREET,GRAYSVILLE,35073,0402,JEFFERSON,2056743040,ME,CI,SO,CI1,N,10/01/2008,09/30/2009,9524,1,0,0,0,1,3.5,98700,1675,0,105375,61000,13000,74000,7800,0,8300,91075,0,0,0,0,0,20658,943,511,114,65,24,2150,9625,6700,2190,34653,5858,564,3186,14,237,6,8029,2010,05,2,00,00,00,-86.973327,33.62663,01,073
AL,AL0097,501-008,HOMEWOOD PUBLIC LIBRARY,1721 OXMOOR ROAD,HOMEWOOD,35209,4085,JEFFERSON,2053326600,ME,CI,SO,CI1,N,10/01/2008,09/30/2009,31045,1,0,0,8.6,8.6,33.57,1983494,16755,4314,2026355,1194118,280517,1474635,161456,4491,253924,2002408,61213,0,10000,71213,61213,72744,0,7715,15435,65,239,3306,576971,90773,24597,608817,181737,181,122,334,16552,125,138125,2010,05,2,00,00,00,-86.795368,33.47552,01,073
AL,AL0098,501-009,HOOVER PUBLIC LIBRARY,200 MUNICIPAL DRIVE,HOOVER,35216,5510,JEFFERSON,2054447810,ME,CI,SO,CI1,N,10/01/2008,09/30/2009,77005,1,0,0,17.81,30.77,69.2,5222404,40606,10913,5522338,2950495,761487,3711982,326897,225,542199,5561650,952532,0,0,952532,936569,212634,0,18176,18559,66,194,3417,684580,45855,86842,1630981,668881,43032,35859,784,48266,163,31112,2010,05,2,00,00,00,-86.80588,33.3878,01,073
AL,AL0099,501-010,HUEYTOWN PUBLIC LIBRARY,1372 HUEYTOWN ROAD,HUEYTOWN,35023,2443,JEFFERSON,2054911443,ME,CI,SO,CI1,N,10/01/2008,09/30/2009,22905,1,0,0,0,1,7,128167,11051,7073,164605,74018,7780,81798,28044,0,41160,144064,0,0,0,0,0,50507,0,2984,1283,85,27,2340,49638,7455,18530,74176,30578,2612,3984,530,4175,11,32427,2010,05,1,00,00,00,-86.997617,33.4491,01,073
AL,AL0100,501-011,IRONDALE PUBLIC LIBRARY,105 SOUTH 20TH STREET,IRONDALE,35210,1593,JEFFERSON,2059511415,ME,CI,SO,CI1,N,10/01/2008,09/30/2009,16598,1,0,0,2,2,5.53,277263,6632,0,306078,173555,52472,226027,28092,0,39288,318444,0,0,0,0,0,41313,0,1085,1896,65,85,2496,28363,9021,5537,67367,20614,4762,5460,46,1563,10,14754,2010,05,1,00,00,15,-86.706714,33.5379,01,073
AL,AL0101,501-012,LEEDS - JANE CULBRETH LIBRARY,8104 PARKWAY DRIVE,LEEDS,35094,2225,JEFFERSON,2056995962,ME,CI,SO,CI1,N,10/01/2008,09/30/2009,18336,1,0,0,1,4,5.27,228000,6622,0,255969,162842,12394,175236,10995,0,15246,243667,0,0,0,0,0,31944,0,1941,2604,65,71,2080,47667,15576,6273,56251,22710,4134,13351,126,2616,19,9139,2010,05,1,00,00,00,-86.561834,33.5398,01,073
AL,AL0102,501-013,MIDFIELD PUBLIC LIBRARY,400 BRELAND DRIVE,MIDFIELD,35228,2732,JEFFERSON,2059231027,ME,CI,SO,CI1,N,10/01/2008,09/30/2009,12340,1,0,0,0,1,1.95,84390,4646,0,98913,,,,10837,0,12013,98418,0,0,0,0,0,15055,0,331,950,66,8,2416,13912,3450,2710,14300,4757,1960,1942,37,1508,10,8522,2010,05,1,00,00,00,-86.915611,33.4576,01,073
AL,AL0103,501-014,PLEASANT GROVE PUBLIC LIBRARY,501 PARK ROAD,PLEASANT GROVE,35127,0339,JEFFERSON,2057441742,ME,CI,SO,CI1,N,10/01/2008,09/30/2009,17400,1,0,0,0,1,2.5,139771,7191,1244,161919,66856,32548,99404,12341,2600,23730,148319,0,0,0,0,0,24422,0,1202,1023,66,23,2404,28459,4632,4077,47718,15737,3562,4641,17,493,12,9228,2010,05,1,00,00,00,-86.970232,33.49061,01,073
AL,AL0104,501-015,TARRANT PUBLIC LIBRARY,1143 FORD AVENUE,TARRANT,35217,2437,JEFFERSON,2058410575,ME,CI,SO,CI1,N,10/01/2008,09/30/2009,13692,1,0,0,0,1,3,178890,5482,0,184372,92509,29405,121914,18345,428,23953,178890,0,0,0,0,0,31331,0,418,847,61,68,2250,27384,1422,4011,19087,8998,1614,1865,25,1001,7,11659,2010,05,1,00,00,00,-86.770589,33.58359,01,073
AL,AL0105,501-016,TRUSSVILLE PUBLIC LIBRARY,201 PARKWAY DRIVE,TRUSSVILLE,35173,1125,JEFFERSON,2056552022,ME,CI,SO,CI1,N,10/01/2008,09/30/2009,25698,1,0,0,2,4,15,953017,14126,3534,1051118,521782,162670,684452,81034,0,102971,1003906,0,0,0,0,0,69584,0,4227,4781,65,100,2916,237074,32026,15361,353783,191290,12466,30209,170,9147,18,3894,2010,05,1,00,00,00,-86.604659,33.62651,01,073
AL,AL0106,501-017,VESTAVIA HILLS PUBLIC LIBRARY,1112 MONTGOMERY HIGHWAY,VESTAVIA HILLS,35216,2797,JEFFERSON,2059780155,ME,CI,SO,CI1,N,10/01/2008,09/30/2009,38161,1,0,0,4,6,17,1258186,21725,0,1324171,729720,197639,927359,110925,4005,156489,1258197,410000,0,0,760000,1301534,81116,0,7181,6623,66,170,3321,248008,172533,13989,277817,92851,23234,17457,337,12640,37,73265,2010,05,1,00,00,00,-86.78852,33.4369,01,073
AL,AL0107,501-018,WARRIOR PUBLIC LIBRARY,101 FIRST STREET,WARRIOR,35180,1500,JEFFERSON,2056473006,ME,CI,SO,CI1,N,10/01/2008,09/30/2009,10157,1,0,0,0,1,2.5,122265,2049,1500,137147,68859,9415,78274,11728,0,12057,132113,0,0,0,0,0,25907,0,115,119,121,35,2492,16866,3041,3129,22206,7974,1832,4511,37,1150,5,3817,2010,05,2,00,00,00,-86.807909,33.8134,01,073
AL,AL0108,501-019,BIRMINGHAM PUBLIC LIBRARY,2100 PARK PLACE,BIRMINGHAM,35203,2794,JEFFERSON,2052263610,ME,CI,MO,CI1,N,10/01/2008,09/30/2009,236948,1,19,0,68.5,72.5,235.38,16490170,199465,0,17564053,10434872,2799946,13234818,938452,298594,1628168,17644458,0,0,0,0,292679,768914,201,29933,47470,99,1804,47689,2151349,794872,165677,1651488,367508,5356,2171,1749,53342,317,582944,2010,05,2,00,00,00,-86.80784,33.52058,01,073
AL,AL0109,504-000,FORT PAYNE - DEKALB COUNTY PUBLIC LIBRARY,504 GRAND AVENUE NW,FORT PAYNE,35967,2314,DEKALB,2568452671,HQ,MJ,MO,CI2,N,10/01/2008,09/30/2009,58429,1,1,1,1,4,4.4,195000,58481,68088,342389,138766,39950,178716,19635,0,26445,341324,0,0,0,1393,42266,79927,56007,2128,982,61,40,4156,59974,69295,13393,63929,19281,130,184,61,1367,22,16691,2010,05,1,00,00,00,-85.720235,34.44492,01,049
AL,AL0110,504-001,COLLINSVILLE PUBLIC LIBRARY,151 MAIN STREET,COLLINSVILLE,35961,0743,DEKALB,2565242323,ME,CI,SO,CI1,N,10/01/2008,09/30/2009,1685,1,0,0,0,1,3,46680,1687,1500,110523,74100,8665,82765,1510,0,1687,101164,2640,0,0,4033,222818,6385,0,317,611,61,6,1333,9801,557,450,3396,1458,0,8,32,430,15,5248,2010,05,1,00,00,07,-85.859286,34.263165,01,049
AL,AL0111,504-002,GERALDINE PUBLIC LIBRARY,13543 ALABAMA HIGHWAY 227,GERALDINE,35974,0268,DEKALB,2566596663,ME,CI,SO,CI1,N,10/01/2008,09/30/2009,832,1,0,0,0,1.75,2.25,30030,834,1528,34999,14850,300,15150,2715,420,3435,28630,0,0,0,0,179,36160,0,1050,1045,61,0,1900,7921,1270,796,6123,1810,17,25,9,573,11,3384,2010,05,2,00,00,00,-86.024644,34.36257,01,049
AL,AL0112,504-003,RAINSVILLE PUBLIC LIBRARY,941 EAST MAIN STREET,RAINSVILLE,35986,0509,DEKALB,2566383311,ME,CI,SO,CI1,N,10/01/2008,09/30/2009,4900,1,0,0,2,6.33,6.33,168804,4905,6762,182710,80361,25722,106083,19398,1056,25354,163205,0,0,0,0,185709,48231,0,2053,1219,73,18,2589,36222,3859,10470,60760,22830,14,13,34,1832,14,330,2010,05,1,00,00,00,-85.82901,34.48679,01,049
AL,AL0113,505-000,ESCAMBIA COUNTY COOPERATIVE LIBRARY SYSTEM,700 EAST CHURCH STREET,ATMORE,36502,2694,ESCAMBIA,2513684130,HQ,CO,SO,CO1,N,10/01/2008,09/30/2009,23355,1,0,0,0,1.5,1.5,25000,23355,0,57270,,,,7046,0,7046,55351,0,0,0,0,0,7121,0,12,258,81,6,1820,76839,249,2858,5764,2885,1567,0,0,0,20,19471,2010,05,2,00,00,00,-87.485677,31.02261,01,053
AL,AL0114,505-001,ATMORE PUBLIC,700 E. CHURCH STREET,ATMORE,36502,2630,ESCAMBIA,2513685234,ME,CI,SO,CI1,N,10/01/2008,09/30/2009,7427,1,0,0,0,6.6,6.9,259668,7435,10883,322974,194853,30073,224926,23779,852,27562,320946,0,0,0,0,0,49918,0,1420,521,61,40,2708,39520,9582,13778,62102,18330,1,35,74,2262,26,15011,2010,05,1,00,00,00,-87.485677,31.02261,01,053
AL,AL0115,505-002,BREWTON PUBLIC LIBRARY,206 WEST JACKSON STREET,BREWTON,36426,1518,ESCAMBIA,2518674626,ME,CI,SO,CI1,N,10/01/2008,09/30/2009,5281,1,0,0,1,1,11,341758,5281,10921,411494,198900,62558,261458,54120,0,122106,434864,0,0,0,0,0,48081,0,2695,4667,68,100,2600,52845,6709,16447,136395,31949,3,6,295,3492,26,20098,2010,05,1,00,00,00,-87.070522,31.12027,01,053
AL,AL0116,505-003,FLOMATON PUBLIC LIBRARY,608 MCCURDY STREET,FLOMATON,36441,0608,ESCAMBIA,2512963552,ME,CI,SO,CI1,N,10/01/2008,09/30/2009,1537,1,0,0,0,2.87,2.87,111595,1539,1500,124315,65031,21314,86345,4480,3078,9108,123963,0,0,0,0,0,25179,0,1654,366,61,31,2450,24496,71271,6064,90450,20403,1,0,49,291,14,5752,2010,05,1,00,00,00,-87.260156,31.00409,01,053
AL,AL0117,506-000,GADSDEN - ETOWAH COUNTY PUBLIC LIBRARY,254 COLLEGE STREET,GADSDEN,35901,4135,ETOWAH,2565494699,HQ,MJ,MO,CO2,N,10/01/2008,09/30/2009,80294,1,1,0,2,3,31,1381305,92546,12000,1551315,732548,439553,1172101,81500,0,96000,1496251,0,0,0,0,0,186040,54,5916,5356,62,122,7124,287950,8366,74040,181663,45049,491,363,421,8406,42,19744,2010,05,1,00,00,00,-86.009857,34.01248,01,055
AL,AL0118,999-082,ATTALLA - ETOWAH COUNTY PUBLIC LIBRARY,604 NORTH 4TH STREET,ATTALLA,35954,2033,ETOWAH,2565389266,ME,CI,SO,CI2,N,10/01/2008,09/30/2009,6544,1,0,0,0,1,3,152022,6550,0,161728,61598,19454,81052,6454,0,6650,116025,1467,0,0,1467,0,27784,0,119,28,62,30,2418,14500,700,10450,13913,3180,0,0,10,350,10,13050,2010,05,1,00,00,00,-86.08743,34.02416,01,055
AL,AL0119,506-002,RAINBOW CITY PUBLIC LIBRARY,3702 RAINBOW DRIVE,RAINBOW CITY,35906,6324,ETOWAH,2564428477,ME,CI,SO,CI1,N,10/01/2008,09/30/2009,9182,1,0,0,1,1,8,353471,9191,1500,365555,174108,68453,242561,44608,1640,59342,365555,0,0,0,0,0,50753,0,3119,2196,63,71,2756,93673,8559,15011,126865,57116,161,24,81,3344,16,14916,2010,05,1,00,00,00,-86.059341,33.94185,01,055
AL,AL0121,508-001,DEMOPOLIS PUBLIC LIBRARY,211 E. WASHINGTON STREET,DEMOPOLIS,36732,2102,MARENGO,3342891595,HQ,CC,SO,CI1,N,10/01/2008,09/30/2009,13188,1,0,0,1,5,8,269293,6224,0,369517,123317,41021,164338,26225,1000,30725,291018,0,0,0,0,0,29710,0,1697,578,63,88,1980,66000,24225,7856,28104,11483,72,129,158,3400,16,15101,2010,05,1,00,00,00,-87.836155,32.51734,01,091
AL,AL0122,508-002,MARENGO COUNTY PUBLIC LIBRARY,507 NORTH MAIN STREET,LINDEN,36748,0519,MARENGO,3342952246,ME,CO,SO,CI1,N,10/01/2008,09/30/2009,8088,1,0,0,0,0.6,1,59578,6731,4712,96720,,,,6750,0,8270,80992,0,0,0,0,0,8555,0,293,101,79,4,1744,11167,1203,1737,12094,2152,0,0,12,402,13,4692,2010,05,1,00,00,15,-87.798093,32.3112,01,091
AL,AL0123,509-000,MARSHALL COUNTY COOPERATIVE LIBRARY,600 COLLEGE STREET SUITE 100,ALBERTVILLE,35950,2438,MARSHALL,2568788523,ME,CO,SO,CO1,N,10/01/2008,09/30/2009,43248,0,0,1,0,1,2.5,22736,40050,0,63351,28356,13138,41494,15008,0,15483,66468,0,0,0,50000,22056,11364,0,286,437,61,0,3220,4993,26432,760,22074,6622,0,0,0,0,0,0,2010,05,2,00,00,15,-86.210157,34.25726,01,095
AL,AL0124,509-001,ARAB PUBLIC LIBRARY,325 2ND STREET NW,ARAB,35016,1346,MARSHALL,2565863366,ME,CI,SO,CI1,N,10/01/2008,09/30/2009,7691,1,0,0,0,1,7,204213,7699,0,221912,121623,41871,163494,18699,0,20899,214893,0,0,0,0,0,54414,0,2139,2362,61,55,2184,21634,1941,15784,75925,26405,0,33,65,1886,13,8250,2010,05,1,00,00,00,-86.49695,34.32038,01,095
AL,AL0125,509-002,BOAZ PUBLIC LIBRARY,404 THOMAS AVE.,BOAZ,35957,2025,MARSHALL,2565938056,ME,CI,SO,CI1,N,10/01/2008,09/30/2009,8213,1,0,0,0,1,5.9,272230,8926,8675,289831,129612,41556,171168,30202,0,30871,289427,0,0,0,0,0,42626,0,1827,2333,61,72,2900,34278,7291,15584,121297,36518,18,25,64,2994,5,17449,2010,05,2,00,00,00,-86.161797,34.20079,01,095
AL,AL0126,509-003,GUNTERSVILLE PUBLIC LIBRARY,1240 O'BRIG AVENUE,GUNTERSVILLE,35976,1431,MARSHALL,2565717595,ME,CI,SO,CI1,N,10/01/2008,09/30/2009,8267,1,0,0,2,3,10,289500,8985,1393,332190,185900,48000,233900,25006,600,32860,325335,0,0,0,0,2793,55590,105,1852,2342,82,89,2236,41300,15763,15511,80816,22650,29,122,221,5482,11,14171,2010,05,1,00,00,00,-86.302149,34.34911,01,095
AL,AL0127,509-004,ALBERTVILLE PUBLIC LIBRARY,200 JACKSON STREET,ALBERTVILLE,35950,0430,MARSHALL,2568918290,ME,CI,SO,CI1,N,10/01/2008,09/30/2009,19536,1,0,0,0,1,6,227770,20323,1500,262895,141911,63348,205259,26551,835,40360,272726,0,0,0,0,1552,76453,0,1648,2467,62,0,2450,64274,4821,23097,117279,24310,0,2,38,736,9,15437,2010,05,2,00,00,00,-86.203086,34.26443,01,095
AL,AL0128,510-000,HARRISON REGIONAL LIBRARY SYSTEM,50 LESTER STREET,COLUMBIANA,35051,9477,SHELBY,2056693910,HQ,CO,MO,CO2,N,10/01/2008,09/30/2009,59067,1,2,0,2,3,10,325000,40861,3713,378824,195403,53860,249263,24073,4550,36611,465349,0,0,0,0,0,9614,0,1642,1007,73,0,5650,14051,7725,722,18266,571,71,1996,53,1398,12,4240,2010,05,1,00,00,00,-86.607628,33.18538,01,117
AL,AL0129,510-001,ALABASTER - ALBERT L. SCOTT LIBRARY,100 9TH STREET N.W.,ALABASTER,35007,9172,SHELBY,2056646822,ME,CI,SO,CI1,N,10/01/2008,09/30/2009,28694,1,0,0,4,5,10.75,764085,28722,0,798696,459277,111311,570588,84801,0,100562,798696,0,0,0,0,0,44927,0,1911,4218,62,112,3091,109349,23429,13935,208495,71673,96,233,267,6739,14,18372,2010,05,2,00,00,00,-86.82663,33.24435,01,117
AL,AL0130,510-002,CALERA PUBLIC LIBRARY,9700 HIGHWAY 25,CALERA,35040,0690,SHELBY,2056683514,ME,CI,SO,CI1,N,10/01/2008,09/30/2009,9398,1,0,0,0,3,4,338000,8787,0,352287,169000,53000,222000,28787,0,38787,301987,0,0,0,0,0,37633,0,1236,2920,79,0,2512,21393,3865,6569,91747,35606,89,153,143,4475,12,12081,2010,05,1,00,00,00,-86.76935,33.09693,01,117
AL,AL0131,510-003,COLUMBIANA PUBLIC LIBRARY,50 LESTER STREET,COLUMBIANA,35051,1459,SHELBY,2056695812,ME,CI,SO,CI1,N,10/01/2008,09/30/2009,3779,1,0,0,0,1,5,186495,3215,1500,204614,95017,12539,107556,18258,0,24188,176851,0,1500,0,1500,1500,29531,0,913,2085,61,28,2600,55100,19800,5529,78703,20929,7248,2671,172,3246,17,16779,2010,05,1,00,00,00,-86.607628,33.18538,01,117
AL,AL0132,510-004,HELENA - JANE B. HOLMES PUBLIC LIBRARY,230 TUCKER ROAD,HELENA,35080,0262,SHELBY,2056648308,ME,CI,SO,CI1,N,10/01/2008,09/30/2009,14158,1,0,0,0,1,4.5,190252,14172,0,225168,131720,26326,158046,7029,0,24258,225166,7152,1500,0,8652,8652,26995,0,3506,6569,74,32,2444,50985,39494,6506,166252,55879,94,72,216,4186,13,8063,2010,05,2,00,00,00,-86.842523,33.2897,01,117
AL,AL0133,510-005,VINCENT - LALLOUISE F. MCGRAW LIBRARY,42860 HIGHWAY 25,VINCENT,35178,0003,SHELBY,2056722749,ME,CI,SO,CI1,N,10/01/2008,09/30/2009,1939,1,0,0,0,1,1,52836,1788,0,57534,,,,4675,0,5086,57534,0,1500,0,1500,1500,7789,0,188,590,73,0,2184,5123,305,1277,8277,2377,9,45,55,858,4,1039,2010,05,1,00,00,00,-86.416809,33.40527,01,117
AL,AL0134,510-006,MONTEVALLO - PARNELL MEMORIAL LIBRARY,277 PARK DRIVE,MONTEVALLO,35115,0845,SHELBY,2056659207,ME,CI,SO,CI1,N,10/01/2008,09/30/2009,5311,1,0,0,0,3,7,147930,5316,1500,202260,76130,15242,91372,8862,0,12089,211277,0,0,0,0,0,21280,0,566,1758,81,21,2197,38270,6650,4049,60146,19486,3443,2112,215,5347,21,11980,2010,05,2,00,00,00,-86.858792,33.10179,01,117
AL,AL0135,510-007,PELHAM PUBLIC LIBRARY,3160 PELHAM PARKWAY,PELHAM,35124,1627,SHELBY,2056206418,ME,CI,SO,CI1,N,10/01/2008,09/30/2009,20625,1,0,0,6,12,15,986291,20646,9260,1060620,590675,174671,765346,54118,0,88285,1060620,0,0,0,0,0,47067,0,2823,5047,85,45,2948,176780,17271,12720,457257,157316,133,104,162,11150,10,19213,2010,05,2,00,00,00,-86.810842,33.28794,01,117
AL,AL0136,510-008,WILSONVILLE - VERNICE STOUDENMIRE LIBRARY,9905 NORTH MAIN STREET,WILSONVILLE,35186,0024,SHELBY,2056696180,ME,CI,SO,CI1,N,10/01/2008,09/30/2009,1804,1,0,0,0,1,1.25,23216,1806,0,25072,,,,3054,0,3095,25072,0,1500,0,1500,1500,6833,0,332,431,73,0,1300,2005,63,252,2748,1108,1,1,5,34,4,427,2010,05,1,00,00,15,-86.506998,33.22778,01,117
AL,AL0137,AL8003 - 1,NORTH SHELBY LIBRARY,5521 CAHABA VALLEY ROAD,BIRMINGHAM,35242,4901,SHELBY,2054395555,ME,CI,SO,OTH,N,10/01/2008,09/30/2009,33085,1,0,0,8,11,22,959866,43673,1500,1117591,343225,50955,394180,53632,2600,74107,1065607,0,0,0,0,0,58652,0,1759,3042,66,50,2704,145000,19954,15870,242831,129473,79,187,322,11884,18,12994,2010,05,2,00,00,00,-86.681969,33.4042,01,117
AL,AL0140,511-001,ALICEVILLE PUBLIC LIBRARY,416 THIRD AVENUE NE,ALICEVILLE,35442,2207,PICKENS,2053736691,ME,CI,SO,CI1,N,10/01/2008,09/30/2009,5652,1,0,0,0,0.95,2.42,51000,2422,1393,70090,41112,0,41112,3747,0,5368,69350,0,243787,0,248654,20467,19699,0,824,1250,81,30,1788,14231,36,4213,12493,3670,104,35,36,1336,9,3900,2010,05,1,00,00,00,-88.147839,33.12936,01,107
AL,AL0141,511-002,CARROLLTON PUBLIC LIBRARY,225 COMMERCE AVENUE,CARROLLTON,35447,0092,PICKENS,2053672142,ME,CI,SO,CI1,N,10/01/2008,09/30/2009,4165,1,0,0,0,0.6,0.67,10000,935,3452,29386,,,,3173,51,5122,26519,0,0,0,0,0,14626,0,512,1218,81,3,1351,8019,3000,2559,15963,6124,71,139,57,811,11,4185,2010,05,1,00,00,00,-88.09437,33.2571,01,107
AL,AL0142,511-003,GORDO - RUTH HOLLIMAN MEMORIAL PUBLIC LIBRARY,287 MAIN STREET SOUTH,GORDO,35466,0336,PICKENS,2053647148,ME,CI,SO,CI1,N,10/01/2008,09/30/2009,4798,1,0,0,0,0.78,0.78,21000,1568,3224,36644,,,,5856,2667,8577,35227,0,0,0,0,0,12402,0,196,628,79,0,1486,10054,807,2640,12826,5365,13,30,72,614,6,2996,2010,05,1,00,00,00,-87.903085,33.31819,01,107
AL,AL0143,511-004,REFORM PUBLIC LIBRARY,302 FIRST STREET SOUTH,REFORM,35481,0819,PICKENS,2053756240,ME,CI,SO,CI1,N,10/01/2008,09/30/2009,5036,1,0,0,0,1,1,32042,1805,0,41284,,,,5983,3538,9521,41842,0,0,0,0,0,13530,0,566,352,74,0,1700,7750,5000,3202,7645,2785,25,42,95,1175,10,4600,2010,05,1,00,00,00,-88.015961,33.3767,01,107
AL,AL0144,512-000,ST. CLAIR COUNTY LIBRARY,139 5TH AVENUE,ASHVILLE,35953,0308,ST. CLAIR,2055943694,HQ,CO,MO,CO2,N,10/01/2008,09/30/2009,23099,1,1,0,1,3.2,3.2,105490,31227,9700,156731,59082,35636,94718,22348,0,28559,148461,0,0,0,0,0,23287,0,241,857,61,19,3120,9338,2091,2715,12266,3536,25,258,5,80,14,3545,2010,05,1,00,00,00,-86.252711,33.83726,01,115
AL,AL0145,512-001,ASHVILLE PUBLIC LIBRARY,196 SIXTH AVENUE,ASHVILLE,35953,0187,ST. CLAIR,2055947954,ME,CI,SO,CI1,N,10/01/2008,09/30/2009,2511,1,0,0,0,0.75,0.75,32646,2342,6790,45588,,,,6071,0,9922,45236,0,0,0,0,0,13436,0,0,431,61,5,1560,3901,65,4497,3701,1934,0,0,40,435,4,777,2010,05,1,00,00,00,-86.253868,33.8365,01,115
AL,AL0146,512-002,MOODY - DORIS STANLEY MEMORIAL LIBRARY,1515 BOOKMARK LANE,MOODY,35004,2239,ST. CLAIR,2056402517,ME,CI,SO,CI1,N,10/01/2008,09/30/2009,18603,1,0,0,0,2.75,2.75,76917,18621,1710,110568,54432,15992,70424,15625,1972,29204,108110,11100,0,0,11100,2598,18294,0,228,785,61,30,2000,16441,1256,4176,29322,14226,43,311,219,2904,9,7129,2010,05,1,00,00,00,-86.485327,33.59208,01,115
AL,AL0147,512-003,ODENVILLE PUBLIC LIBRARY,200 ALABAMA STREET,ODENVILLE,35120,0249,ST. CLAIR,2056295901,ME,CI,SO,CI1,N,10/01/2008,09/30/2009,8021,1,0,0,0,0.8,1.6,64801,8029,8025,86811,,,,14935,0,16748,79121,0,0,0,0,0,14897,0,496,864,81,6,1820,20762,1956,3565,17361,6208,37,44,292,3180,13,4090,2010,05,1,00,00,00,-86.396318,33.68291,01,115
AL,AL0148,999-031,PELL CITY PUBLIC LIBRARY,1923 1ST AVENUE NORTH,PELL CITY,35125,1663,ST. CLAIR,2058841015,ME,CI,SO,CI1,N,10/01/2008,09/30/2009,20234,1,0,0,1,4,6,274590,20254,30600,335116,164241,41654,205895,28882,975,38159,335116,0,0,0,0,0,31197,58,1449,995,82,0,2652,54550,5910,14014,82880,31179,304,2412,70,3510,9,31400,2010,05,1,00,00,00,-86.285981,33.5872,01,115
AL,AL0151,513-001,YORK - HIGHTOWER MEMORIAL LIBRARY,602 2ND AVENUE,YORK,36925,M,SUMTER,2053922004,ME,CI,SO,CI1,N,10/01/2008,09/30/2009,2526,1,0,0,0,0.5,1,22881,3902,0,33234,,,,3228,0,3649,33089,0,0,0,0,0,16833,0,96,110,61,15,1146,3597,50,0,4870,2576,0,4,4,30,4,2600,2010,05,2,00,00,00,-88.296343,32.4864,01,119
AL,AL0152,513-002,LIVINGSTON - RUBY PICKENS TARTT PUBLIC LIBRARY,206 MONROE ST.,LIVINGSTON,35470,0377,SUMTER,2056522349,ME,CI,SO,CI1,N,10/01/2008,09/30/2009,10780,1,0,0,1,1.5,3.3,130645,7543,1780,149694,94064,11844,105908,15519,0,18303,151031,0,0,0,0,0,30332,0,975,497,61,41,2285,18208,1146,3693,31715,8197,4,39,11,488,5,2108,2010,05,1,00,00,15,-88.189306,32.5843,01,119
AL,AL0154,514-001,ANNISTON - CALHOUN COUNTY PUBLIC LIBRARY,108 EAST 10TH STREET,ANNISTON,36201,5662,CALHOUN,2562378501,HQ,MJ,MO,CO2,N,10/01/2008,09/30/2009,76855,1,1,1,2.5,6.5,17.5,677000,76914,59372,892875,511664,63361,575025,45560,4410,68084,823424,3559,0,0,3559,3559,109779,70,3334,2311,75,110,5258,86777,56186,29138,191576,54531,615,521,235,5748,76,76303,2010,05,1,00,00,00,-85.828184,33.65709,01,015
AL,AL0155,514-002,JACKSONVILLE PUBLIC LIBRARY,200 PELHAM ROAD SOUTH,JACKSONVILLE,36265,2153,CALHOUN,2564356332,ME,CI,SO,CO1,N,10/01/2008,09/30/2009,9711,1,0,0,1,7.32,9.47,466202,9729,0,475931,247600,61552,309152,57222,0,80309,408725,235600,0,0,235600,235369,55718,0,653,2410,61,59,2600,47812,802,12558,99075,44823,171,73,65,2408,37,9172,2010,05,1,00,00,00,-85.761243,33.81522,01,015
AL,AL0156,514-003,PIEDMONT PUBLIC LIBRARY,106 NORTH MAIN STREET,PIEDMONT,36272,2022,CALHOUN,2564473369,ME,CI,SO,CI1,N,10/01/2008,09/30/2009,4975,1,0,0,0,1,4,100968,4988,0,108816,55000,16025,71025,12537,0,14499,105956,0,0,0,0,0,21178,0,962,972,79,23,2132,23325,10025,367,29805,7435,48,56,102,3190,10,4210,2010,05,2,00,00,15,-85.613567,33.92345,01,015
AL,AL0157,999-001,AKRON PUBLIC LIBRARY,207 FIRST AVENUE SOUTH,AKRON,35441,0008,HALE,2053723148,NO,CI,SO,CI1,N,10/01/2008,09/30/2009,2457,1,0,0,0,1,1,2096,2459,0,4576,,,,730,0,888,4714,0,0,0,0,0,3614,0,82,58,74,0,832,411,36,101,699,436,0,0,2,19,2,33,2010,05,1,00,00,00,-87.722532,32.84956,01,065
AL,AL0158,999-002,DOTHAN / HOUSTON-LOVE MEMORIAL LIBRARY,212 WEST BURDESHAW STREET,DOTHAN,36303,4421,HOUSTON,3347939767,NO,MJ,MO,CO1,N,10/01/2008,09/30/2009,97171,1,2,2,4,16,22,575522,97267,16448,828314,452571,110802,563373,138517,0,148779,850002,0,0,0,0,0,208625,31,2037,2699,82,120,6109,214130,10385,69323,248108,71565,527,91,154,2753,62,65280,2010,05,1,00,00,00,-85.394347,31.22795,01,069
AL,AL0159,999-003,BLOUNTSVILLE PUBLIC LIBRARY,65 CHESTNUT STREET,BLOUNTSVILLE,35031,0219,BLOUNT,2054293156,ME,CI,SO,CI2,N,10/01/2008,09/30/2009,13898,1,0,0,0,1,2,92349,15288,3000,114955,,,,12138,0,12138,98893,0,0,0,0,0,31492,0,285,1269,139,39,2500,45000,2500,10800,45011,14620,2,3,64,1110,10,3000,2010,05,1,00,00,00,-86.589984,34.07894,01,009
AL,AL0160,999-004,CHEROKEE PUBLIC LIBRARY,118 CHURCH STREET,CHEROKEE,35616,0333,COLBERT,2563594384,NO,MJ,SO,CI2,N,10/01/2008,09/30/2009,5639,1,0,0,0,1,1,14000,5645,2500,28842,,,,4498,139,5562,22135,0,0,0,0,0,21578,0,648,264,217,26,1300,3572,20,2461,12595,5830,0,0,44,122,9,2478,2010,05,2,00,00,00,-87.972203,34.756,01,033
AL,AL0161,999-005,BRENT - CENTREVILLE PUBLIC LIBRARY,20 LIBRARY STREET,CENTREVILLE,35042,1322,BIBB,2059264736,NO,MJ,SO,CO1,N,10/01/2008,09/30/2009,18095,1,0,0,0,1,3,31153,19992,0,65147,24070,0,24070,14023,0,14177,63452,0,0,0,0,0,27531,0,1122,2189,74,32,2200,37203,4611,7174,35694,11237,0,31,21,578,6,13497,2010,05,1,00,14,00,-87.150862,32.94501,01,007
AL,AL0162,999-006,CHILTON - CLANTON PUBLIC LIBRARY,100 FIRST AVENUE,CLANTON,35045,3499,CHILTON,2057551768,NO,MJ,MO,CO1,N,10/01/2008,09/30/2009,42299,1,3,0,0,1,6,153468,42341,1393,228746,129505,11927,141432,13078,0,17168,218559,0,0,0,0,0,72809,0,914,1600,61,3,8516,48545,398,3008,86702,26012,36,35,38,601,13,14321,2010,05,1,00,00,00,-86.624538,32.84072,01,021
AL,AL0163,999-007,CHOCTAW COUNTY PUBLIC LIBRARY,124 NORTH ACADEMY AVENUE,BUTLER,36904,2206,CHOCTAW,2054592542,NO,MJ,MO,CO1,N,10/01/2008,09/30/2009,14173,1,2,0,0,1.75,3.67,52333,15641,0,214350,74224,1820,76044,10939,0,11427,195512,0,0,0,0,54099,72679,0,3928,6658,61,29,3992,19280,487,6275,21646,7551,0,2,33,609,13,3906,2010,05,1,00,00,00,-88.220066,32.09019,01,023
AL,AL0164,999-008,CITRONELLE MEMORIAL LIBRARY,7855 STATE STREET,CITRONELLE,36522,2450,MOBILE,2518667319,NO,CI,SO,CI1,N,10/01/2008,09/30/2009,3705,1,0,0,0,4,4,94000,4075,1500,105535,44000,0,44000,10541,0,13767,101626,0,0,0,0,0,29527,0,241,88,61,27,1525,10040,695,2759,8541,2152,0,0,6,360,11,3000,2010,05,1,00,00,00,-88.228948,31.09091,01,097
AL,AL0165,999-009,GROVE HILL PUBLIC LIBRARY,108 DUBOSE AVENUE,GROVE HILL,36451,9502,CLARKE,2512758157,NO,CI,SO,CI1,N,10/01/2008,09/30/2009,6525,1,0,0,1.2,1.2,1.2,24000,5772,1000,44772,,,,4435,6498,11883,45208,0,0,0,0,0,14278,0,142,264,61,40,2001,9104,462,5471,5678,1719,0,0,2,139,10,4159,2010,05,1,00,00,00,-87.775112,31.70534,01,025
AL,AL0166,999-010,HUNTSVILLE - MADISON COUNTY PUBLIC LIBRARY,915 MONROE STREET,HUNTSVILLE,35801,5077,MADISON,2565325950,NO,MJ,MO,CO1,N,10/01/2008,09/30/2009,312734,1,11,2,20,39,100,4853556,313045,55898,6323143,2995152,462405,3457557,394291,29314,628517,5466476,0,0,0,0,250000,470127,11165,41611,50663,73,1402,26955,1022039,125962,139286,2028224,828686,462,834,2385,78525,272,274432,2010,05,1,00,14,00,-86.590277,34.72336,01,089
AL,AL0167,999-011,EUTAW - JAMES C. POOLE JR. MEMORIAL LIBRARY,420 PRAIRIE AVENUE,EUTAW,35462,5114,GREENE,2053729026,NO,CO,SO,CO1,N,10/01/2008,09/30/2009,9201,1,0,0,0,1,2,29741,10121,3500,70126,,,,2650,0,2739,53662,0,0,0,0,0,13993,0,162,87,79,32,2056,17550,12720,2775,11320,4405,0,12,44,765,14,12595,2010,05,1,00,00,00,-87.88783,32.84269,01,063
AL,AL0168,999-012,GREENVILLE - BUTLER COUNTY PUBLIC LIBRARY,309 FORT DALE STREET,GREENVILLE,36037,1401,BUTLER,3343823216,NO,MJ,SO,CO1,N,10/01/2008,09/30/2009,20157,1,0,0,1,3.6,3.9,203885,22819,0,277600,118613,23744,142357,14623,0,15773,217995,12470,0,0,12470,29470,37708,0,1660,1073,61,25,2400,50769,9113,15650,31253,9062,13,17,54,1002,22,11712,2010,05,2,00,00,15,-86.626174,31.8319,01,013
AL,AL0169,999-013,HALE COUNTY LIBRARY,1103 MAIN STREET,GREENSBORO,36744,0399,HALE,3346243409,NO,MJ,SO,CI1,N,10/01/2008,09/30/2009,8626,1,0,0,0,1.2,1.2,10701,8635,1454,40349,,,,4874,985,5909,40454,0,0,0,0,0,14531,0,332,327,84,20,1616,9136,1985,4998,5647,1495,0,5,17,144,5,2484,2010,05,1,00,00,00,-87.592238,32.70406,01,065
AL,AL0170,999-014,CHICKASAW - INA PULLEN SMALLWOOD MEMORIAL LIBRARY,224 GRANT STREET,CHICKASAW,36611,2153,MOBILE,2514526465,NO,CI,SO,CI1,N,10/01/2008,09/30/2009,5979,1,0,0,0,1,3,41950,6577,1500,51942,17957,1619,19576,8499,70,9931,38705,0,0,0,0,0,29598,0,1867,2617,89,49,1522,17524,3259,265,9324,1273,0,10,8,155,10,8650,2010,05,1,00,00,00,-88.078362,30.76494,01,097
AL,AL0171,999-015,JACKSON - WHITE SMITH MEMORIAL LIBRARY,213 COLLEGE AVENUE,JACKSON,36545,0265,CLARKE,2512464962,NO,CI,SO,CI1,N,10/01/2008,09/30/2009,10302,1,0,0,0,1,5,165650,10312,1500,241143,105174,23200,128374,10429,0,10615,202289,0,0,0,135678,1324025,21728,0,760,1100,471,15,2091,15801,640,7042,20531,6068,0,118,51,1360,18,7029,2010,05,1,00,00,00,-87.893736,31.51237,01,025
AL,AL0172,999-016,MARION - PERRY COUNTY PUBLIC LIBRARY,202 WASHINGTON STREET,MARION,36756,1824,PERRY,3346836411,NO,MJ,SO,CO2,N,10/01/2008,09/30/2009,6768,1,0,0,0,2,2,20500,6775,8119,48194,,,,9437,0,14129,55289,0,0,0,0,2156,13358,0,321,1295,61,3,1500,15188,6700,2679,7545,1463,12,87,97,2075,11,6471,2010,05,1,00,14,00,-87.31907,32.63421,01,105
AL,AL0173,999-017,WOODVILLE PUBLIC LIBRARY,26 VENSON STREET,WOODVILLE,35776,0116,JACKSON,2567762796,NO,CI,SO,CI1,N,10/01/2008,09/30/2009,3995,1,0,0,0,1,1,38599,3801,0,48401,,,,7980,0,15090,48981,0,0,0,1500,1500,20725,0,36,185,61,25,1562,5154,66,3763,14430,4142,0,10,42,672,9,1891,2010,05,1,00,00,00,-86.274704,34.62723,01,071
AL,AL0174,999-018,CITY OF BAYOU LA BATRE PUBLIC LIBRARY,12747 PADGETT SWITCH ROAD,IRVINGTON,36509,2410,MOBILE,2518244213,NO,CI,SO,CI1,N,10/01/2008,09/30/2009,2706,1,0,0,0,1,1.5,35526,2550,0,44612,,,,6424,0,6424,34361,0,0,0,0,0,14777,0,0,207,72,0,2000,6952,641,3566,24331,16900,0,0,6,123,7,3690,2010,05,1,00,00,00,-88.241606,30.4252,01,097
AL,AL0175,999-019,SCOTTSBORO PUBLIC LIBRARY,1002 SOUTH BROAD STREET,SCOTTSBORO,35768,2512,JACKSON,2565744335,NO,MJ,SO,CI2,N,10/01/2008,09/30/2009,34345,1,0,0,0,1,8,147000,52413,0,270711,101131,25921,127052,25692,909,33079,234730,0,0,0,4142,0,53250,27432,2223,2013,62,60,2496,64489,2124,16144,70859,21987,22,54,35,1553,11,12840,2010,05,1,00,00,00,-86.035173,34.65779,01,071
AL,AL0176,999-020,ONEONTA PUBLIC LIBRARY,221 SECOND STREET SOUTH,ONEONTA,35121,2109,BLOUNT,2052747641,HQ,MJ,SO,CO2,N,10/01/2008,09/30/2009,42716,1,0,0,0,3,6.75,239740,42758,1496,314876,142700,38650,181350,39750,0,48465,339306,5816,0,0,5816,5816,50808,0,2280,1627,61,97,2404,62693,12681,14450,201930,72099,32,40,63,2758,22,8189,2010,05,1,00,00,00,-86.475671,33.9445,01,009
AL,AL0177,999-021,THOMASVILLE PUBLIC LIBRARY,1401 MOSLEY DRIVE,THOMASVILLE,36784,3334,CLARKE,3346365343,NO,CI,SO,CI1,N,10/01/2008,09/30/2009,9669,1,0,0,0,3.88,3.96,149020,9679,8290,206663,93026,25767,118793,24005,1825,30041,194583,5916,0,0,5916,5916,20234,0,596,1050,62,37,2496,36895,4063,5044,37430,8832,0,60,174,2216,22,8724,2010,05,1,00,00,00,-87.736905,31.9319,01,025
AL,AL0178,999-022,MACON COUNTY - TUSKEGEE PUBLIC LIBRARY,302 SOUTH MAIN STREET,TUSKEGEE,36083,1807,MACON,3347275192,NO,MJ,SO,CO1,N,10/01/2008,09/30/2009,22336,1,0,0,1,2,6,170935,26294,1393,198823,79339,23822,103161,7792,355,28054,144552,0,0,0,0,0,6272,0,2889,324,81,15,1850,18333,18955,13873,18586,9876,24,92,44,979,29,16021,2010,05,1,00,00,00,-85.689058,32.42189,01,087
AL,AL0179,999-023,MOUNDVILLE PUBLIC LIBRARY,410 MARKET STREET,MOUNDVILLE,35474,0336,HALE,2053712283,NO,CI,SO,CI1,N,10/01/2008,09/30/2009,7028,1,0,0,0,1,1,29912,7035,3193,46222,,,,4033,0,4364,34177,0,0,0,0,0,9735,0,153,357,79,6,1912,5773,338,645,4152,2465,1,3,20,429,7,866,2010,05,1,00,00,00,-87.631279,32.99839,01,065
AL,AL0180,999-024,UNIONTOWN PUBLIC LIBRARY,108 WATER STREET,UNIONTOWN,36786,0637,PERRY,3346286681,NO,CI,SO,CI1,N,10/01/2008,09/30/2009,3834,1,0,0,1,2,2,27000,3711,1500,34619,,,,3810,0,3956,25097,0,0,0,0,0,10359,0,164,102,74,0,2100,3532,155,4205,3930,1718,0,0,16,179,6,143,2010,05,1,00,00,00,-87.523784,32.41158,01,105
AL,AL0181,999-025,PRICHARD PUBLIC LIBRARY,300 WEST LOVEJOY LOOP,PRICHARD,36610,3952,MOBILE,2514527847,NO,CI,MO,CI1,N,10/01/2008,09/30/2009,28291,1,1,0,0,4,9,128968,28319,0,164330,103250,11503,114753,8903,251,25202,161478,0,0,0,0,0,64562,65,1426,1300,33,24,3020,10500,69751,15040,16275,6775,0,0,400,5050,16,6000,2010,05,1,00,00,00,-88.083931,30.73224,01,097
AL,AL0182,999-026,WASHINGTON COUNTY PUBLIC LIBRARY,14102 ST. STEPHENS AVENUE,CHATOM,36518,1057,WASHINGTON,2518472097,NO,CO,MO,CO1,N,10/01/2008,09/30/2009,17226,1,1,1,1,1,7,23456,17243,46822,309099,152596,38414,191010,22091,1750,25331,322842,0,0,0,0,54203,60110,0,2152,1312,98,44,3564,31075,6320,10212,25640,11389,341,118,374,4564,29,12389,2010,05,1,00,00,15,-88.209143,31.4529,01,129
AL,AL0184,999-030,EVERGREEN PUBLIC LIBRARY,119 CEMETERY AVENUE,EVERGREEN,36401,2903,CONECUH,2515782670,NO,MJ,SO,CO1,N,10/01/2008,09/30/2009,13160,1,0,0,1,2,7,150418,14566,0,191525,103127,23250,126377,9886,0,18103,163368,0,0,0,0,0,32644,0,1363,1183,61,16,2080,13721,1143,5563,36205,12720,0,0,0,0,13,7550,2010,05,2,00,00,00,-86.954008,31.43397,01,035
AL,AL0186,999-032,MOBILE PUBLIC LIBRARY,701 GOVERNMENT STREET,MOBILE,36602,1402,MOBILE,2512087073,NO,MJ,MO,CO2,N,10/01/2008,09/30/2009,356912,1,8,1,29,33,154.5,8468587,357266,0,9765412,4783754,1426376,6210130,1101142,48083,1485441,9765412,100000,30000,59700,261742,264303,559006,0,64813,57822,83,803,23146,1469049,402231,214405,2121584,491531,1843,2098,2322,55230,396,375730,2010,05,1,00,00,00,-88.050459,30.68722,01,097
AL,AL0187,999-036,MONTGOMERY CITY-COUNTY PUBLIC LIBRARY,245 HIGH STREET,MONTGOMERY,36104,4286,MONTGOMERY,3342404300,NO,MJ,MO,CO1,N,10/01/2008,09/30/2009,225791,1,9,0,9,31,66,4375340,224774,21000,4859298,2576147,659454,3235601,669552,48192,829513,4485235,150000,150000,0,300000,212779,585534,13,16762,5999,103,928,27651,908194,80282,149534,709199,318987,363,330,1988,51665,175,450285,2010,05,1,00,00,00,-86.305395,32.37188,01,101
AL,AL0188,999-037,WHITE HALL PUBLIC LIBRARY,640 FREEDOM ROAD,WHITE HALL,36040,2830,LOWNDES,3348747323,NO,CI,SO,CI1,N,10/01/2008,09/30/2009,2754,1,0,0,1,1,1,13140,2756,0,18396,,,,688,288,1386,16528,0,0,0,0,0,11745,0,358,217,61,0,1040,588,20,793,2512,1463,0,0,22,137,4,41,2010,05,1,00,00,00,-86.712635,32.3016,01,085
AL,AL0189,999-040,STEVENSON PUBLIC LIBRARY,102 WEST MAIN STREET,STEVENSON,35772,3564,JACKSON,2564373008,NO,CI,SO,CI1,N,10/01/2008,09/30/2009,5257,1,0,0,0,1,1,30460,5088,1500,47048,,,,5158,0,7848,39416,0,0,0,0,0,13870,0,10,697,81,0,1221,4300,600,3438,5851,2182,0,0,17,820,8,3500,2010,05,1,00,00,00,-85.836287,34.8703,01,071
AL,AL0190,516-002,KILLEN PUBLIC LIBRARY,325 J. C. MAULDIN HIGHWAY,KILLEN,35645,0542,LAUDERDALE,2567575471,ME,CI,SO,CI1,N,10/01/2008,09/30/2009,1132,1,0,0,0,1.6,1.6,39723,10375,6752,60806,,,,14305,0,20305,61235,0,0,0,0,0,23740,0,321,174,61,0,2350,5000,3529,2401,14479,4945,0,0,47,300,5,2408,2010,05,1,00,00,00,-87.547366,34.85742,01,077
AL,AL0191,516-003,LEXINGTON - BURCHELL CAMPBELL MEMORIAL LIBRARY,11075 HIGHWAY 101,LEXINGTON,35648,0459,LAUDERDALE,2562295579,ME,CI,SO,CI2,N,10/01/2008,09/30/2009,837,1,0,0,0,1,2,22395,5019,0,27414,,,,4168,0,4168,27413,0,0,0,0,0,14054,0,391,139,61,2,1196,7820,2080,1724,12054,4666,0,2,8,683,5,1439,2010,05,1,00,00,00,-87.371204,34.9686,01,077
AL,AL0192,999-043,AUTAUGA - PRATTVILLE PUBLIC LIBRARY,254 DOSTER STREET,PRATTVILLE,36067,3900,AUTAUGA,3343653396,NO,MJ,MO,CO1,N,10/01/2008,09/30/2009,49960,1,3,0,3,5,19,450000,50010,40295,592460,287072,76966,364038,41856,1500,50965,588019,0,0,0,22070,22770,80922,0,1783,1600,81,125,6136,198000,40101,22996,151424,55928,113,25,333,10506,41,43000,2010,05,1,00,00,00,-86.468856,32.45693,01,001
AL,AL0193,999-044,FAYETTE COUNTY MEMORIAL LIBRARY,326 TEMPLE AVENUE NORTH,FAYETTE,35555,2383,FAYETTE,2059326625,NO,CO,SO,CO1,N,10/01/2008,09/30/2009,17648,1,0,0,0,1,3.37,40100,15784,0,178254,70281,11647,81928,13350,5000,35100,178254,0,0,0,0,0,65575,0,5949,6372,56,36,2400,31044,23619,9101,44194,12744,0,0,215,2885,12,6017,2010,05,2,00,00,00,-87.830805,33.68862,01,057
AL,AL0194,999-045,PHENIX CITY - RUSSELL COUNTY PUBLIC LIBRARY,1501 17TH AVENUE,PHENIX CITY,36867,5140,RUSSELL,3342971139,NO,MJ,SO,CO1,N,10/01/2008,09/30/2009,50183,1,0,0,0,1,6.4,165750,51625,0,273368,145835,10010,155845,32919,1000,38135,283196,21801,0,0,21801,0,47434,0,560,2645,61,97,2762,72620,3165,25980,61963,11484,0,2,264,10293,25,42574,2010,05,1,00,14,00,-85.016045,32.475,01,113
AL,AL0195,999-046,SELMA - DALLAS COUNTY PUBLIC LIBRARY,1103 SELMA AVENUE,SELMA,36703,4498,DALLAS,3348741725,NO,MJ,SO,CI1,N,10/01/2008,09/30/2009,43079,1,0,0,1,4,21,369657,46300,1393,605582,294760,57144,351904,51251,0,57551,605582,0,0,0,0,0,78550,0,890,1938,62,40,2500,179220,91970,29910,119440,44740,0,70,400,11850,40,41850,2010,05,1,00,14,00,-87.020437,32.40904,01,047
AL,AL0196,999-047,TUSCALOOSA PUBLIC LIBRARY,1801 JACK WARNER PARKWAY,TUSCALOOSA,35401,1027,TUSCALOOSA,2053455820,NO,MJ,MO,CO1,N,10/01/2008,09/30/2009,177906,1,1,2,18,19,73,3053000,178083,9053,3427708,1809383,462742,2272125,316900,24478,437583,3618957,0,0,0,100000,125443,220085,106,13193,22166,87,423,9848,731731,63904,68662,863401,378242,290,960,915,23593,134,97771,2010,05,1,00,00,00,-87.561937,33.21636,01,125
AL,AL0197,999-048,WILCOX COUNTY LIBRARY,100 BROAD STREET,CAMDEN,36726,1702,WILCOX,3346824355,NO,CO,MO,CO1,N,10/01/2008,09/30/2009,12779,1,2,0,0,1,5,108822,12792,17442,146322,74077,24789,98866,21279,1733,24138,160190,0,0,0,400,0,45585,1,1169,522,83,29,3132,9312,3912,7257,22450,11272,0,10,19,438,18,4811,2010,05,1,00,00,00,-87.289077,31.99046,01,131
AL,AL0198,999-049,MONROE COUNTY PUBLIC LIBRARY,121 PINEVILLE ROAD,MONROEVILLE,36460,1899,MONROE,2517433818,NO,CO,SO,CO1,N,10/01/2008,09/30/2009,22764,1,0,0,0,2,2.37,80000,25514,0,161203,79430,13652,93082,14311,2728,17039,138151,0,0,0,0,0,26112,0,1158,583,61,23,2040,49695,4820,13018,66782,20729,0,8,51,7175,10,22269,2010,05,1,00,00,00,-87.324371,31.52798,01,099
AL,AL0199,999-051,CULLMAN COUNTY PUBLIC LIBRARY SYSTEM,200 CLARK STREET NE,CULLMAN,35055,2997,CULLMAN,2567341068,HQ,MJ,MO,CO1,N,10/01/2008,09/30/2009,80554,1,3,1,2,4,14,441333,80634,11200,558677,273487,70023,343510,42451,6299,71799,540214,0,0,0,0,0,75493,27476,3904,6631,64,125,8861,97038,7951,28457,152643,43971,401,80,152,3059,53,36125,2010,05,1,00,00,00,-86.842599,34.17913,01,043
AL,AL0200,999-052,VALLEY - H. GRADY BRADSHAW / CHAMBERS COUNTY LIBRARY,3419 20TH AVENUE,VALLEY,36854,3299,CHAMBERS,3347682161,NO,CO,MO,CO1,N,10/01/2008,09/30/2009,34764,1,1,0,1,2,12.5,92685,37691,0,740739,321978,97806,419784,59829,2400,73852,754482,0,0,0,0,0,95620,0,2567,4348,65,5,3793,107434,5738,18973,113636,40598,121,144,296,12757,50,55727,2010,05,1,00,06,00,-85.177663,32.83876,01,017
AL,AL0203,999-081,HOKES BLUFF - RUFUS FLOYD PUBLIC LIBRARY,3310 ALFORDS BEND ROAD,HOKES BLUFF,35903,9804,ETOWAH,2564929846,ME,CI,SO,CI1,N,10/01/2008,09/30/2009,4417,1,0,0,0,0.16,0.96,17509,4431,0,41185,,,,7558,0,7558,40103,0,0,2893,17043,9613,13860,0,441,0,79,23,1598,14714,1498,4613,12216,2910,0,0,29,410,17,6280,2010,05,1,00,00,00,-85.866027,33.99177,01,055
AL,AL0204,512-004,RAGLAND PUBLIC LIBRARY,738 MAIN STREET,RAGLAND,35131,3125,ST. CLAIR,2054722007,ME,CI,SO,CI1,N,10/01/2008,09/30/2009,2102,1,0,0,0,0.65,0.65,16555,3279,14550,40022,,,,3304,0,3795,39022,0,0,0,0,0,12875,0,61,756,61,4,1352,5072,665,1224,8738,3771,0,10,27,356,8,4166,2010,05,1,00,00,00,-86.153776,33.74267,01,115
AL,AL0206,999-063,HAYNEVILLE - LOWNDES COUNTY PUBLIC LIBRARY,215B TUSKEENA STREET,HAYNEVILLE,36040,0425,LOWNDES,3345482686,NO,MJ,SO,CO2,N,10/01/2008,09/30/2009,6956,1,0,0,1,1,1.75,23900,6973,0,44425,,,,1841,762,3076,31680,0,0,146819,148319,326928,23487,0,152,196,74,13,1155,7149,224,2162,16185,7389,15,32,18,375,3,700,2010,05,1,00,14,07,-86.581962,32.184003,01,085
AL,AL0208,504-004,IDER PUBLIC LIBRARY,11309 ALABAMA  HIGHWAY 75,IDER,35981,0202,DEKALB,2566572170,ME,CI,SO,CI1,N,10/01/2008,09/30/2009,710,1,0,0,0,1,1.5,23122,711,1454,29658,,,,2258,0,2394,27029,0,0,0,0,0,10700,0,82,412,61,6,960,5228,491,1052,6833,1317,0,6,1,7,6,1105,2010,05,1,00,00,07,-85.676162,34.687126,01,049
AL,AL0209,517-002,EUFAULA CARNEGIE LIBRARY,217 NORTH EUFAULA AVENUE,EUFAULA,36027,1515,BARBOUR,3346872337,ME,CI,MO,CO2,N,10/01/2008,09/30/2009,15787,1,1,0,1,6,10,324844,15803,11133,380866,191473,54295,245768,32348,805,35618,353132,0,0,0,0,2303,32183,0,1182,2007,61,93,2656,42367,5137,9596,39655,10182,0,83,93,1926,17,12224,2010,05,1,00,00,00,-85.145646,31.8951,01,005
AL,AL0210,509-005,GRANT PUBLIC LIBRARY,5379 MAIN STREET,GRANT,35747,0401,MARSHALL,2567285128,ME,CI,SO,CI1,N,10/01/2008,09/30/2009,689,1,0,0,1,2,2,23874,689,3880,28924,,,,3880,0,4274,28460,0,0,0,0,0,16918,0,175,278,0,1,1600,8000,556,2476,9283,2640,0,0,26,628,3,1800,2010,05,2,00,00,00,-86.252925,34.52667,01,095
AL,AL0211,999-076,DALEVILLE PUBLIC LIBRARY,308 DONNELL BOULEVARD,DALEVILLE,36322,2118,DALE,3345039119,ME,CI,SO,CI1,N,10/01/2008,09/30/2009,6538,1,0,0,0,1,2.38,72607,6545,1500,109212,40044,12538,52582,6987,0,13529,107024,0,0,0,0,0,22147,0,1049,2625,61,51,2046,26749,5682,5820,19061,7059,79,142,203,1348,38,10546,2010,05,1,00,00,00,-85.706778,31.31651,01,045
AL,AL0216,107-005,COURTLAND PUBLIC LIBRARY,215 COLLEGE STREET,COURTLAND,35618,M,LAWRENCE,2566379988,ME,CI,SO,CO2,N,10/01/2008,09/30/2009,1560,1,0,0,0,1,2,38500,1596,0,40608,,,,9403,250,10198,34074,0,0,0,0,0,14396,27887,156,70,76,9,1000,4996,695,5978,5709,1201,5,1,9,324,3,1979,2010,05,1,00,00,00,-87.310339,34.6734,01,079
AL,AL0217,107-006,EVA PUBLIC LIBRARY,4549 HIGHWAY 55 EAST,EVA,35621,0099,MORGAN,2567968638,ME,CI,SO,CI1,N,10/01/2008,09/30/2009,908,1,0,0,0,1,1.25,33890,908,3880,42370,,,,5275,0,8328,33398,0,0,0,0,0,11946,27515,735,412,81,0,953,7860,1069,1550,11132,4680,68,160,62,1187,7,739,2010,05,1,00,00,00,-86.772281,34.33376,01,103
